{'results': [{'address_components': [{'long_name': 'Arica', 'short_name': 'Arica', 'types': ['locality', 'political']}, {'long_name': 'Arica', 'short_name': 'Arica', 'types': ['administrative_area_level_3', 'political']}, {'long_name': 'Arica Province', 'short_name': 'Arica Province', 'types': ['administrative_area_level_2', 'political']}, {'long_name': 'Arica y Parinacota', 'short_name': 'Arica y Parinacota', 'types': ['administrative_area_level_1', 'political']}, {'long_name': 'Chile', 'short_name': 'CL', 'types': ['country', 'political']}], 'formatted_address': 'Arica, Arica y Parinacota, Chile', 'geometry': {'bounds': {'northeast': {'lat': -18.4228594, 'lng': -70.2445165}, 'southwest': {'lat': -18.522094, 'lng': -70.33377879999999}}, 'location': {'lat': -18.4782534, 'lng': -70.3125988}, 'location_type': 'APPROXIMATE', 'viewport': {'northeast': {'lat': -18.4228594, 'lng': -70.2445165}, 'southwest': {'lat': -18.522094, 'lng': -70.33377879999999}}}, 'partial_match': True, 'place_id': 'ChIJNcIy2YqpWpERHdfYBGyI9Sc', 'types': ['locality', 'political']}], 'status': 'OK'}
{'results': [{'address_components': [{'long_name': 'Arica y Parinacota', 'short_name': 'Arica y Parinacota', 'types': ['administrative_area_level_1', 'political']}, {'long_name': 'Chile', 'short_name': 'CL', 'types': ['country', 'political']}], 'formatted_address': 'Arica y Parinacota, Chile', 'geometry': {'bounds': {'northeast': {'lat': -17.5008571, 'lng': -68.9160988}, 'southwest': {'lat': -19.2289685, 'lng': -70.3780768}}, 'location': {'lat': -18.5940485, 'lng': -69.4784541}, 'location_type': 'APPROXIMATE', 'viewport': {'northeast': {'lat': -17.5008571, 'lng': -68.9160988}, 'southwest': {'lat': -19.2289685, 'lng': -70.3780768}}}, 'partial_match': True, 'place_id': 'ChIJEQWs7gx-WpERH_0UYq_-Tn4', 'types': ['administrative_area_level_1', 'political']}], 'status': 'OK'}
{'results': [{'address_components': [{'long_name': 'General Lagos', 'short_name': 'General Lagos', 'types': ['locality', 'political']}, {'long_name': 'General Lagos', 'short_name': 'Gral. Lagos', 'types': ['administrative_area_level_3', 'political']}, {'long_name': 'Parinacota Province', 'short_name': 'Parinacota Province', 'types': ['administrative_area_level_2', 'political']}, {'long_name': 'Arica y Parinacota', 'short_name': 'Arica y Parinacota', 'types': ['administrative_area_level_1', 'political']}, {'long_name': 'Chile', 'short_name': 'CL', 'types': ['country', 'political']}], 'formatted_address': 'General Lagos, Gral. Lagos, Arica y Parinacota, Chile', 'geometry': {'location': {'lat': -17.866667, 'lng': -69.583333}, 'location_type': 'APPROXIMATE', 'viewport': {'northeast': {'lat': -17.8560468, 'lng': -69.5673256}, 'southwest': {'lat': -17.8772866, 'lng': -69.5993404}}}, 'partial_match': True, 'place_id': 'ChIJiVaNJE9XWpERThis8SBVC9M', 'types': ['locality', 'political']}], 'status': 'OK'}
{'results': [{'address_components': [{'long_name': 'Putre', 'short_name': 'Putre', 'types': ['locality', 'political']}, {'long_name': 'Putre', 'short_name': 'Putre', 'types': ['administrative_area_level_3', 'political']}, {'long_name': 'Parinacota Province', 'short_name': 'Parinacota Province', 'types': ['administrative_area_level_2', 'political']}, {'long_name': 'Arica y Parinacota', 'short_name': 'Arica y Parinacota', 'types': ['administrative_area_level_1', 'political']}, {'long_name': 'Chile', 'short_name': 'CL', 'types': ['country', 'political']}], 'formatted_address': 'Putre, Arica y Parinacota, Chile', 'geometry': {'location': {'lat': -18.1969907, 'lng': -69.55972729999999}, 'location_type': 'APPROXIMATE', 'viewport': {'northeast': {'lat': -18.1863904, 'lng': -69.5437199}, 'southwest': {'lat': -18.2075903, 'lng': -69.5757347}}}, 'partial_match': True, 'place_id': 'ChIJe9GHILSYUJERhnF1M-le7cU', 'types': ['locality', 'political']}], 'status': 'OK'}
{'results': [{'address_components': [{'long_name': 'Alto Hospicio', 'short_name': 'Alto Hospicio', 'types': ['locality', 'political']}, {'long_name': 'Alto Hospicio', 'short_name': 'Alto Hospicio', 'types': ['administrative_area_level_3', 'political']}, {'long_name': 'Iquique Province', 'short_name': 'Iquique Province', 'types': ['administrative_area_level_2', 'political']}, {'long_name': 'Tarapacá', 'short_name': 'Tarapacá', 'types': ['administrative_area_level_1', 'political']}, {'long_name': 'Chile', 'short_name': 'CL', 'types': ['country', 'political']}], 'formatted_address': 'Alto Hospicio, Tarapacá, Chile', 'geometry': {'bounds': {'northeast': {'lat': -20.2425205, 'lng': -70.0707477}, 'southwest': {'lat': -20.3006411, 'lng': -70.1118097}}, 'location': {'lat': -20.2686722, 'lng': -70.10491689999999}, 'location_type': 'APPROXIMATE', 'viewport': {'northeast': {'lat': -20.2425205, 'lng': -70.0707477}, 'southwest': {'lat': -20.3006411, 'lng': -70.1118097}}}, 'partial_match': True, 'place_id': 'ChIJM1Y8KXA-UpERYFYvYzn3H2c', 'types': ['locality', 'political']}], 'status': 'OK'}
{'results': [{'address_components': [{'long_name': 'Camiña', 'short_name': 'Camiña', 'types': ['locality', 'political']}, {'long_name': 'Camiña', 'short_name': 'Camiña', 'types': ['administrative_area_level_3', 'political']}, {'long_name': 'Tamarugal', 'short_name': 'Tamarugal', 'types': ['administrative_area_level_2', 'political']}, {'long_name': 'Tarapacá', 'short_name': 'Tarapacá', 'types': ['administrative_area_level_1', 'political']}, {'long_name': 'Chile', 'short_name': 'CL', 'types': ['country', 'political']}], 'formatted_address': 'Camiña, Tarapacá, Chile', 'geometry': {'location': {'lat': -19.3116281, 'lng': -69.4298687}, 'location_type': 'APPROXIMATE', 'viewport': {'northeast': {'lat': -19.3010976, 'lng': -69.4138613}, 'southwest': {'lat': -19.3221579, 'lng': -69.44587609999999}}}, 'partial_match': True, 'place_id': 'ChIJfU-RK7ERUZER2tm5sB6IRoQ', 'types': ['locality', 'political']}], 'status': 'OK'}
{'results': [{'address_components': [{'long_name': 'Colchane', 'short_name': 'Colchane', 'types': ['locality', 'political']}, {'long_name': 'Colchane', 'short_name': 'Colchane', 'types': ['administrative_area_level_3', 'political']}, {'long_name': 'Tamarugal', 'short_name': 'Tamarugal', 'types': ['administrative_area_level_2', 'political']}, {'long_name': 'Tarapacá', 'short_name': 'Tarapacá', 'types': ['administrative_area_level_1', 'political']}, {'long_name': 'Chile', 'short_name': 'CL', 'types': ['country', 'political']}], 'formatted_address': 'Colchane, Tarapacá, Chile', 'geometry': {'bounds': {'northeast': {'lat': -19.2736865, 'lng': -68.6342698}, 'southwest': {'lat': -19.2784462, 'lng': -68.6423872}}, 'location': {'lat': -19.2761393, 'lng': -68.6388049}, 'location_type': 'APPROXIMATE', 'viewport': {'northeast': {'lat': -19.2736865, 'lng': -68.6342698}, 'southwest': {'lat': -19.2784462, 'lng': -68.6423872}}}, 'partial_match': True, 'place_id': 'ChIJJ41fcm3EVpERRULI5TPXkXg', 'types': ['locality', 'political']}], 'status': 'OK'}
{'results': [{'address_components': [{'long_name': 'Huara', 'short_name': 'Huara', 'types': ['locality', 'political']}, {'long_name': 'Huara', 'short_name': 'Huara', 'types': ['administrative_area_level_3', 'political']}, {'long_name': 'Tamarugal', 'short_name': 'Tamarugal', 'types': ['administrative_area_level_2', 'political']}, {'long_name': 'Tarapacá', 'short_name': 'Tarapacá', 'types': ['administrative_area_level_1', 'political']}, {'long_name': 'Chile', 'short_name': 'CL', 'types': ['country', 'political']}], 'formatted_address': 'Huara, Tarapacá, Chile', 'geometry': {'location': {'lat': -19.9972461, 'lng': -69.77185150000001}, 'location_type': 'APPROXIMATE', 'viewport': {'northeast': {'lat': -19.9867605, 'lng': -69.75584409999999}, 'southwest': {'lat': -20.007731, 'lng': -69.7878589}}}, 'partial_match': True, 'place_id': 'ChIJI2DTOe90UZERQowggh9qtuY', 'types': ['locality', 'political']}], 'status': 'OK'}
{'results': [{'address_components': [{'long_name': 'Iquique', 'short_name': 'Iquique', 'types': ['locality', 'political']}, {'long_name': 'Iquique', 'short_name': 'Iquique', 'types': ['administrative_area_level_3', 'political']}, {'long_name': 'Iquique Province', 'short_name': 'Iquique Province', 'types': ['administrative_area_level_2', 'political']}, {'long_name': 'Tarapacá', 'short_name': 'Tarapacá', 'types': ['administrative_area_level_1', 'political']}, {'long_name': 'Chile', 'short_name': 'CL', 'types': ['country', 'political']}], 'formatted_address': 'Iquique, Tarapacá, Chile', 'geometry': {'bounds': {'northeast': {'lat': -20.1906046, 'lng': -70.114443}, 'southwest': {'lat': -20.2990278, 'lng': -70.1632556}}, 'location': {'lat': -20.2307033, 'lng': -70.1356692}, 'location_type': 'APPROXIMATE', 'viewport': {'northeast': {'lat': -20.1906046, 'lng': -70.114443}, 'southwest': {'lat': -20.2990278, 'lng': -70.1632556}}}, 'partial_match': True, 'place_id': 'ChIJNZk2-GPzUpERMEnJqa6qVyo', 'types': ['locality', 'political']}], 'status': 'OK'}
{'results': [{'address_components': [{'long_name': 'Pica', 'short_name': 'Pica', 'types': ['locality', 'political']}, {'long_name': 'Pica', 'short_name': 'Pica', 'types': ['administrative_area_level_3', 'political']}, {'long_name': 'Tamarugal', 'short_name': 'Tamarugal', 'types': ['administrative_area_level_2', 'political']}, {'long_name': 'Tarapacá', 'short_name': 'Tarapacá', 'types': ['administrative_area_level_1', 'political']}, {'long_name': 'Chile', 'short_name': 'CL', 'types': ['country', 'political']}], 'formatted_address': 'Pica, Tarapacá, Chile', 'geometry': {'location': {'lat': -20.489483, 'lng': -69.330511}, 'location_type': 'APPROXIMATE', 'viewport': {'northeast': {'lat': -20.4790305, 'lng': -69.3145036}, 'southwest': {'lat': -20.4999347, 'lng': -69.34651840000001}}}, 'partial_match': True, 'place_id': 'ChIJUXdycYOhU5ERLLPQ2yH4Orc', 'types': ['locality', 'political']}], 'status': 'OK'}
{'results': [{'address_components': [{'long_name': 'Pozo Almonte', 'short_name': 'Pozo Almonte', 'types': ['locality', 'political']}, {'long_name': 'Pozo Almonte', 'short_name': 'Pozo Almonte', 'types': ['administrative_area_level_3', 'political']}, {'long_name': 'Tamarugal', 'short_name': 'Tamarugal', 'types': ['administrative_area_level_2', 'political']}, {'long_name': 'Tarapacá', 'short_name': 'Tarapacá', 'types': ['administrative_area_level_1', 'political']}, {'long_name': 'Chile', 'short_name': 'CL', 'types': ['country', 'political']}], 'formatted_address': 'Pozo Almonte, Tarapacá, Chile', 'geometry': {'bounds': {'northeast': {'lat': -20.248208, 'lng': -69.7751012}, 'southwest': {'lat': -20.2669569, 'lng': -69.78979199999999}}, 'location': {'lat': -20.2567092, 'lng': -69.7860128}, 'location_type': 'APPROXIMATE', 'viewport': {'northeast': {'lat': -20.248208, 'lng': -69.7751012}, 'southwest': {'lat': -20.2669569, 'lng': -69.78979199999999}}}, 'partial_match': True, 'place_id': 'ChIJT3x1KzQFU5ERZ9-RrxlUKts', 'types': ['locality', 'political']}], 'status': 'OK'}
{'results': [{'address_components': [{'long_name': 'Antofagasta', 'short_name': 'Antofagasta', 'types': ['locality', 'political']}, {'long_name': 'Antofagasta', 'short_name': 'Antofagasta', 'types': ['administrative_area_level_3', 'political']}, {'long_name': 'Antofagasta Province', 'short_name': 'Antofagasta Province', 'types': ['administrative_area_level_2', 'political']}, {'long_name': 'Antofagasta', 'short_name': 'Antofagasta', 'types': ['administrative_area_level_1', 'political']}, {'long_name': 'Chile', 'short_name': 'CL', 'types': ['country', 'political']}], 'formatted_address': 'Antofagasta, Chile', 'geometry': {'bounds': {'northeast': {'lat': -23.5304846, 'lng': -70.3709547}, 'southwest': {'lat': -23.726255, 'lng': -70.4385025}}, 'location': {'lat': -23.6509279, 'lng': -70.39750219999999}, 'location_type': 'APPROXIMATE', 'viewport': {'northeast': {'lat': -23.5304846, 'lng': -70.3709547}, 'southwest': {'lat': -23.726255, 'lng': -70.4385025}}}, 'partial_match': True, 'place_id': 'ChIJaWRlmRmKpZYRlm8eTfQVvp8', 'types': ['locality', 'political']}], 'status': 'OK'}
{'results': [{'address_components': [{'long_name': 'Calama', 'short_name': 'Calama', 'types': ['locality', 'political']}, {'long_name': 'Calama', 'short_name': 'Calama', 'types': ['administrative_area_level_3', 'political']}, {'long_name': 'El Loa', 'short_name': 'El Loa', 'types': ['administrative_area_level_2', 'political']}, {'long_name': 'Antofagasta', 'short_name': 'Antofagasta', 'types': ['administrative_area_level_1', 'political']}, {'long_name': 'Chile', 'short_name': 'CL', 'types': ['country', 'political']}], 'formatted_address': 'Calama, Antofagasta, Chile', 'geometry': {'bounds': {'northeast': {'lat': -22.4286385, 'lng': -68.89553330000001}, 'southwest': {'lat': -22.4939065, 'lng': -68.9512376}}, 'location': {'lat': -22.4543923, 'lng': -68.9293819}, 'location_type': 'APPROXIMATE', 'viewport': {'northeast': {'lat': -22.4286385, 'lng': -68.89553330000001}, 'southwest': {'lat': -22.4939065, 'lng': -68.9512376}}}, 'partial_match': True, 'place_id': 'ChIJDYullY-Xq5YRBiPHJzYJev4', 'types': ['locality', 'political']}], 'status': 'OK'}
{'results': [{'address_components': [{'long_name': 'María Elena', 'short_name': 'María Elena', 'types': ['locality', 'political']}, {'long_name': 'Maria Elena', 'short_name': 'Maria Elena', 'types': ['administrative_area_level_3', 'political']}, {'long_name': 'Tocopilla Province', 'short_name': 'Tocopilla Province', 'types': ['administrative_area_level_2', 'political']}, {'long_name': 'Antofagasta', 'short_name': 'Antofagasta', 'types': ['administrative_area_level_1', 'political']}, {'long_name': 'Chile', 'short_name': 'CL', 'types': ['country', 'political']}], 'formatted_address': 'María Elena, Maria Elena, Antofagasta, Chile', 'geometry': {'location': {'lat': -22.166667, 'lng': -69.416667}, 'location_type': 'APPROXIMATE', 'viewport': {'northeast': {'lat': -22.1563333, 'lng': -69.4006596}, 'southwest': {'lat': -22.1769999, 'lng': -69.4326744}}}, 'partial_match': True, 'place_id': 'ChIJI5BaxaVbrJYRdMzpZtoH-bs', 'types': ['locality', 'political']}], 'status': 'OK'}
{'results': [{'address_components': [{'long_name': 'Mejillones', 'short_name': 'Mejillones', 'types': ['route']}, {'long_name': 'Antofagasta', 'short_name': 'Antofagasta', 'types': ['locality', 'political']}, {'long_name': 'Antofagasta', 'short_name': 'Antofagasta', 'types': ['administrative_area_level_3', 'political']}, {'long_name': 'Antofagasta', 'short_name': 'Antofagasta', 'types': ['administrative_area_level_2', 'political']}, {'long_name': 'Antofagasta', 'short_name': 'Antofagasta', 'types': ['administrative_area_level_1', 'political']}, {'long_name': 'Chile', 'short_name': 'CL', 'types': ['country', 'political']}], 'formatted_address': 'Mejillones, Antofagasta, Chile', 'geometry': {'bounds': {'northeast': {'lat': -23.6217295, 'lng': -70.38963269999999}, 'southwest': {'lat': -23.6288106, 'lng': -70.3933522}}, 'location': {'lat': -23.6252499, 'lng': -70.3913681}, 'location_type': 'GEOMETRIC_CENTER', 'viewport': {'northeast': {'lat': -23.6217295, 'lng': -70.38963269999999}, 'southwest': {'lat': -23.6288106, 'lng': -70.3933522}}}, 'partial_match': True, 'place_id': 'ChIJ9ZOB9SzVr5YRpdreHp7KFFg', 'types': ['route']}], 'status': 'OK'}
{'results': [{'address_components': [{'long_name': 'Ollagüe', 'short_name': 'Ollagüe', 'types': ['locality', 'political']}, {'long_name': 'Ollague', 'short_name': 'Ollague', 'types': ['administrative_area_level_3', 'political']}, {'long_name': 'El Loa', 'short_name': 'El Loa', 'types': ['administrative_area_level_2', 'political']}, {'long_name': 'Antofagasta', 'short_name': 'Antofagasta', 'types': ['administrative_area_level_1', 'political']}, {'long_name': 'Chile', 'short_name': 'CL', 'types': ['country', 'political']}], 'formatted_address': 'Ollagüe, Ollague, Antofagasta, Chile', 'geometry': {'location': {'lat': -21.2256917, 'lng': -68.2547802}, 'location_type': 'APPROXIMATE', 'viewport': {'northeast': {'lat': -21.2152903, 'lng': -68.23877279999999}, 'southwest': {'lat': -21.2360924, 'lng': -68.27078759999999}}}, 'partial_match': True, 'place_id': 'ChIJtYe9TRIjq5YRoRqXWxfGfbk', 'types': ['locality', 'political']}], 'status': 'OK'}
{'results': [{'address_components': [{'long_name': 'San Pedro de Atacama', 'short_name': 'San Pedro de Atacama', 'types': ['locality', 'political']}, {'long_name': 'San Pedro de Atacama', 'short_name': 'San Pedro de Atacama', 'types': ['administrative_area_level_3', 'political']}, {'long_name': 'El Loa', 'short_name': 'El Loa', 'types': ['administrative_area_level_2', 'political']}, {'long_name': 'Antofagasta', 'short_name': 'Antofagasta', 'types': ['administrative_area_level_1', 'political']}, {'long_name': 'Chile', 'short_name': 'CL', 'types': ['country', 'political']}], 'formatted_address': 'San Pedro de Atacama, Antofagasta, Chile', 'geometry': {'bounds': {'northeast': {'lat': -22.8995159, 'lng': -68.1886564}, 'southwest': {'lat': -22.9285125, 'lng': -68.2086729}}, 'location': {'lat': -22.9087073, 'lng': -68.19971559999999}, 'location_type': 'APPROXIMATE', 'viewport': {'northeast': {'lat': -22.8995159, 'lng': -68.1886564}, 'southwest': {'lat': -22.9285125, 'lng': -68.2086729}}}, 'partial_match': True, 'place_id': 'ChIJP78qqXpMqJYR0Zf5rExh9Ho', 'types': ['locality', 'political']}], 'status': 'OK'}
{'results': [{'address_components': [{'long_name': 'Sierra Gorda', 'short_name': 'Sierra Gorda', 'types': ['locality', 'political']}, {'long_name': 'Sierra Gorda', 'short_name': 'Sierra Gorda', 'types': ['administrative_area_level_3', 'political']}, {'long_name': 'Antofagasta Province', 'short_name': 'Antofagasta Province', 'types': ['administrative_area_level_2', 'political']}, {'long_name': 'Antofagasta', 'short_name': 'Antofagasta', 'types': ['administrative_area_level_1', 'political']}, {'long_name': 'Chile', 'short_name': 'CL', 'types': ['country', 'political']}], 'formatted_address': 'Sierra Gorda, Antofagasta, Chile', 'geometry': {'location': {'lat': -22.8860128, 'lng': -69.3171995}, 'location_type': 'APPROXIMATE', 'viewport': {'northeast': {'lat': -22.8757328, 'lng': -69.3011921}, 'southwest': {'lat': -22.896292, 'lng': -69.3332069}}}, 'partial_match': True, 'place_id': 'ChIJf3lOZGzprpYR4GGLve8U_DU', 'types': ['locality', 'political']}], 'status': 'OK'}
{'results': [{'address_components': [{'long_name': 'Taltal', 'short_name': 'Taltal', 'types': ['locality', 'political']}, {'long_name': 'Taltal', 'short_name': 'Taltal', 'types': ['administrative_area_level_3', 'political']}, {'long_name': 'Antofagasta', 'short_name': 'Antofagasta', 'types': ['administrative_area_level_2', 'political']}, {'long_name': 'Antofagasta', 'short_name': 'Antofagasta', 'types': ['administrative_area_level_1', 'political']}, {'long_name': 'Chile', 'short_name': 'CL', 'types': ['country', 'political']}], 'formatted_address': 'Taltal, Antofagasta, Chile', 'geometry': {'bounds': {'northeast': {'lat': -25.3967083, 'lng': -70.4700996}, 'southwest': {'lat': -25.4167883, 'lng': -70.49324490000001}}, 'location': {'lat': -25.406494, 'lng': -70.4803027}, 'location_type': 'APPROXIMATE', 'viewport': {'northeast': {'lat': -25.3967083, 'lng': -70.4700996}, 'southwest': {'lat': -25.4167883, 'lng': -70.49324490000001}}}, 'partial_match': True, 'place_id': 'ChIJK_AvpI7tpJYRfHaCYn2me_k', 'types': ['locality', 'political']}], 'status': 'OK'}
{'results': [{'address_components': [{'long_name': 'Tocopilla', 'short_name': 'Tocopilla', 'types': ['locality', 'political']}, {'long_name': 'Tocopilla', 'short_name': 'Tocopilla', 'types': ['administrative_area_level_3', 'political']}, {'long_name': 'Tocopilla Province', 'short_name': 'Tocopilla Province', 'types': ['administrative_area_level_2', 'political']}, {'long_name': 'Antofagasta', 'short_name': 'Antofagasta', 'types': ['administrative_area_level_1', 'political']}, {'long_name': 'Chile', 'short_name': 'CL', 'types': ['country', 'political']}], 'formatted_address': 'Tocopilla, Antofagasta, Chile', 'geometry': {'location': {'lat': -22.0857976, 'lng': -70.1930064}, 'location_type': 'APPROXIMATE', 'viewport': {'northeast': {'lat': -22.075458, 'lng': -70.17699900000001}, 'southwest': {'lat': -22.0961365, 'lng': -70.2090138}}}, 'partial_match': True, 'place_id': 'ChIJDbVbEP92rZYRIGftdCf_TCY', 'types': ['locality', 'political']}], 'status': 'OK'}
{'results': [{'address_components': [{'long_name': 'Alto del Carmen', 'short_name': 'Alto del Carmen', 'types': ['locality', 'political']}, {'long_name': 'Alto del Carmen', 'short_name': 'Alto del Carmen', 'types': ['administrative_area_level_3', 'political']}, {'long_name': 'Huasco Province', 'short_name': 'Huasco Province', 'types': ['administrative_area_level_2', 'political']}, {'long_name': 'Atacama', 'short_name': 'Atacama', 'types': ['administrative_area_level_1', 'political']}, {'long_name': 'Chile', 'short_name': 'CL', 'types': ['country', 'political']}], 'formatted_address': 'Alto del Carmen, Atacama, Chile', 'geometry': {'location': {'lat': -28.759444, 'lng': -70.486667}, 'location_type': 'APPROXIMATE', 'viewport': {'northeast': {'lat': -28.7496619, 'lng': -70.47065959999999}, 'southwest': {'lat': -28.76922519999999, 'lng': -70.5026744}}}, 'partial_match': True, 'place_id': 'ChIJW-CifH9rmpYR1mLQkeNn_4Q', 'types': ['locality', 'political']}], 'status': 'OK'}
{'results': [{'address_components': [{'long_name': 'Caldera', 'short_name': 'Caldera', 'types': ['locality', 'political']}, {'long_name': 'Caldera', 'short_name': 'Caldera', 'types': ['administrative_area_level_3', 'political']}, {'long_name': 'Copiapó Province', 'short_name': 'Copiapó Province', 'types': ['administrative_area_level_2', 'political']}, {'long_name': 'Atacama', 'short_name': 'Atacama', 'types': ['administrative_area_level_1', 'political']}, {'long_name': 'Chile', 'short_name': 'CL', 'types': ['country', 'political']}], 'formatted_address': 'Caldera, Atacama, Chile', 'geometry': {'bounds': {'northeast': {'lat': -27.0505852, 'lng': -70.8008053}, 'southwest': {'lat': -27.0889042, 'lng': -70.84384299999999}}, 'location': {'lat': -27.0667, 'lng': -70.8178142}, 'location_type': 'APPROXIMATE', 'viewport': {'northeast': {'lat': -27.0505852, 'lng': -70.8008053}, 'southwest': {'lat': -27.0889042, 'lng': -70.84384299999999}}}, 'partial_match': True, 'place_id': 'ChIJ5zQitqVXvZYRr6vR0gmXb58', 'types': ['locality', 'political']}], 'status': 'OK'}
{'results': [{'address_components': [{'long_name': 'Chañaral', 'short_name': 'Chañaral', 'types': ['locality', 'political']}, {'long_name': 'Chañaral', 'short_name': 'Chañaral', 'types': ['administrative_area_level_3', 'political']}, {'long_name': 'Chañaral Province', 'short_name': 'Chañaral Province', 'types': ['administrative_area_level_2', 'political']}, {'long_name': 'Atacama', 'short_name': 'Atacama', 'types': ['administrative_area_level_1', 'political']}, {'long_name': 'Chile', 'short_name': 'CL', 'types': ['country', 'political']}], 'formatted_address': 'Chañaral, Atacama, Chile', 'geometry': {'bounds': {'northeast': {'lat': -26.3302553, 'lng': -70.6064629}, 'southwest': {'lat': -26.351669, 'lng': -70.62932169999999}}, 'location': {'lat': -26.3450046, 'lng': -70.624193}, 'location_type': 'APPROXIMATE', 'viewport': {'northeast': {'lat': -26.3302553, 'lng': -70.6064629}, 'southwest': {'lat': -26.351669, 'lng': -70.62932169999999}}}, 'partial_match': True, 'place_id': 'ChIJG8IbGO0uo5YR4F52a8iyBzM', 'types': ['locality', 'political']}], 'status': 'OK'}
{'results': [{'address_components': [{'long_name': 'Copiapó', 'short_name': 'Copiapó', 'types': ['locality', 'political']}, {'long_name': 'Copiapo', 'short_name': 'Copiapo', 'types': ['administrative_area_level_3', 'political']}, {'long_name': 'Copiapó Province', 'short_name': 'Copiapó Province', 'types': ['administrative_area_level_2', 'political']}, {'long_name': 'Atacama', 'short_name': 'Atacama', 'types': ['administrative_area_level_1', 'political']}, {'long_name': 'Chile', 'short_name': 'CL', 'types': ['country', 'political']}], 'formatted_address': 'Copiapó, Copiapo, Atacama, Chile', 'geometry': {'bounds': {'northeast': {'lat': -27.3435974, 'lng': -70.2845042}, 'southwest': {'lat': -27.4109362, 'lng': -70.3575137}}, 'location': {'lat': -27.3665763, 'lng': -70.3321587}, 'location_type': 'APPROXIMATE', 'viewport': {'northeast': {'lat': -27.3435974, 'lng': -70.2845042}, 'southwest': {'lat': -27.4109362, 'lng': -70.3575137}}}, 'partial_match': True, 'place_id': 'ChIJcW0xLQsEmJYReg-k8cCWBfg', 'types': ['locality', 'political']}], 'status': 'OK'}
{'results': [{'address_components': [{'long_name': 'Diego de Almagro', 'short_name': 'Diego de Almagro', 'types': ['locality', 'political']}, {'long_name': 'Diego de Almagro', 'short_name': 'Diego de Almagro', 'types': ['administrative_area_level_3', 'political']}, {'long_name': 'Chañaral Province', 'short_name': 'Chañaral Province', 'types': ['administrative_area_level_2', 'political']}, {'long_name': 'Atacama', 'short_name': 'Atacama', 'types': ['administrative_area_level_1', 'political']}, {'long_name': 'Chile', 'short_name': 'CL', 'types': ['country', 'political']}], 'formatted_address': 'Diego de Almagro, Atacama, Chile', 'geometry': {'location': {'lat': -26.3902488, 'lng': -70.0475302}, 'location_type': 'APPROXIMATE', 'viewport': {'northeast': {'lat': -26.3802532, 'lng': -70.03152279999999}, 'southwest': {'lat': -26.4002436, 'lng': -70.0635376}}}, 'partial_match': True, 'place_id': 'ChIJC9H3m5m4o5YRSIziZUzJ2LU', 'types': ['locality', 'political']}], 'status': 'OK'}
{'results': [{'address_components': [{'long_name': 'Freirina', 'short_name': 'Freirina', 'types': ['locality', 'political']}, {'long_name': 'Freirina', 'short_name': 'Freirina', 'types': ['administrative_area_level_3', 'political']}, {'long_name': 'Huasco Province', 'short_name': 'Huasco Province', 'types': ['administrative_area_level_2', 'political']}, {'long_name': 'Atacama', 'short_name': 'Atacama', 'types': ['administrative_area_level_1', 'political']}, {'long_name': 'Chile', 'short_name': 'CL', 'types': ['country', 'political']}], 'formatted_address': 'Freirina, Atacama, Chile', 'geometry': {'bounds': {'northeast': {'lat': -28.5047734, 'lng': -71.07239349999999}, 'southwest': {'lat': -28.5154384, 'lng': -71.09011}}, 'location': {'lat': -28.512094, 'lng': -71.0795967}, 'location_type': 'APPROXIMATE', 'viewport': {'northeast': {'lat': -28.5047734, 'lng': -71.07239349999999}, 'southwest': {'lat': -28.5154384, 'lng': -71.09011}}}, 'partial_match': True, 'place_id': 'ChIJ6zXefEjVkJYR9b761OQxn-g', 'types': ['locality', 'political']}], 'status': 'OK'}
{'results': [{'address_components': [{'long_name': 'Huasco', 'short_name': 'Huasco', 'types': ['locality', 'political']}, {'long_name': 'Huasco', 'short_name': 'Huasco', 'types': ['administrative_area_level_3', 'political']}, {'long_name': 'Huasco Province', 'short_name': 'Huasco Province', 'types': ['administrative_area_level_2', 'political']}, {'long_name': 'Atacama', 'short_name': 'Atacama', 'types': ['administrative_area_level_1', 'political']}, {'long_name': 'Chile', 'short_name': 'CL', 'types': ['country', 'political']}], 'formatted_address': 'Huasco, Atacama, Chile', 'geometry': {'bounds': {'northeast': {'lat': -28.4604022, 'lng': -71.2037502}, 'southwest': {'lat': -28.4741299, 'lng': -71.23685069999999}}, 'location': {'lat': -28.4664, 'lng': -71.2192}, 'location_type': 'APPROXIMATE', 'viewport': {'northeast': {'lat': -28.4604022, 'lng': -71.2037502}, 'southwest': {'lat': -28.4741299, 'lng': -71.23685069999999}}}, 'partial_match': True, 'place_id': 'ChIJ85D0avkal5YRgRnMkhnncuQ', 'types': ['locality', 'political']}], 'status': 'OK'}
{'results': [{'address_components': [{'long_name': 'Tierra Amarilla', 'short_name': 'Tierra Amarilla', 'types': ['locality', 'political']}, {'long_name': 'Tierra Amarilla', 'short_name': 'Tierra Amarilla', 'types': ['administrative_area_level_3', 'political']}, {'long_name': 'Copiapó Province', 'short_name': 'Copiapó Province', 'types': ['administrative_area_level_2', 'political']}, {'long_name': 'Atacama', 'short_name': 'Atacama', 'types': ['administrative_area_level_1', 'political']}, {'long_name': 'Chile', 'short_name': 'CL', 'types': ['country', 'political']}], 'formatted_address': 'Tierra Amarilla, Atacama, Chile', 'geometry': {'bounds': {'northeast': {'lat': -27.441784, 'lng': -70.2531455}, 'southwest': {'lat': -27.499166, 'lng': -70.2706244}}, 'location': {'lat': -27.4671706, 'lng': -70.2652196}, 'location_type': 'APPROXIMATE', 'viewport': {'northeast': {'lat': -27.441784, 'lng': -70.2531455}, 'southwest': {'lat': -27.499166, 'lng': -70.2706244}}}, 'partial_match': True, 'place_id': 'ChIJpY2QGJuqmZYR44lG5FRMD2c', 'types': ['locality', 'political']}], 'status': 'OK'}
{'results': [{'address_components': [{'long_name': 'Vallenar', 'short_name': 'Vallenar', 'types': ['locality', 'political']}, {'long_name': 'Vallenar', 'short_name': 'Vallenar', 'types': ['administrative_area_level_3', 'political']}, {'long_name': 'Huasco Province', 'short_name': 'Huasco Province', 'types': ['administrative_area_level_2', 'political']}, {'long_name': 'Atacama', 'short_name': 'Atacama', 'types': ['administrative_area_level_1', 'political']}, {'long_name': 'Chile', 'short_name': 'CL', 'types': ['country', 'political']}], 'formatted_address': 'Vallenar, Atacama, Chile', 'geometry': {'bounds': {'northeast': {'lat': -28.5607734, 'lng': -70.73345139999999}, 'southwest': {'lat': -28.5945727, 'lng': -70.79616519999999}}, 'location': {'lat': -28.5757953, 'lng': -70.7571009}, 'location_type': 'APPROXIMATE', 'viewport': {'northeast': {'lat': -28.5607734, 'lng': -70.73345139999999}, 'southwest': {'lat': -28.5945727, 'lng': -70.79616519999999}}}, 'partial_match': True, 'place_id': 'ChIJSW5eiOBQl5YRWmOuwQSNMT8', 'types': ['locality', 'political']}], 'status': 'OK'}
{'results': [{'address_components': [{'long_name': 'Andacollo', 'short_name': 'Andacollo', 'types': ['locality', 'political']}, {'long_name': 'Andacollo', 'short_name': 'Andacollo', 'types': ['administrative_area_level_3', 'political']}, {'long_name': 'Elqui Province', 'short_name': 'Elqui Province', 'types': ['administrative_area_level_2', 'political']}, {'long_name': 'Coquimbo', 'short_name': 'Coquimbo', 'types': ['administrative_area_level_1', 'political']}, {'long_name': 'Chile', 'short_name': 'CL', 'types': ['country', 'political']}], 'formatted_address': 'Andacollo, Coquimbo, Chile', 'geometry': {'bounds': {'northeast': {'lat': -30.2254173, 'lng': -71.0722238}, 'southwest': {'lat': -30.2525033, 'lng': -71.0905234}}, 'location': {'lat': -30.2357949, 'lng': -71.0828027}, 'location_type': 'APPROXIMATE', 'viewport': {'northeast': {'lat': -30.2254173, 'lng': -71.0722238}, 'southwest': {'lat': -30.2525033, 'lng': -71.0905234}}}, 'partial_match': True, 'place_id': 'ChIJxxOBE9opkJYRNWeBTB1BJgs', 'types': ['locality', 'political']}], 'status': 'OK'}
{'results': [{'address_components': [{'long_name': 'Coquimbo', 'short_name': 'Coquimbo', 'types': ['locality', 'political']}, {'long_name': 'Coquimbo', 'short_name': 'Coquimbo', 'types': ['administrative_area_level_3', 'political']}, {'long_name': 'Elqui Province', 'short_name': 'Elqui Province', 'types': ['administrative_area_level_2', 'political']}, {'long_name': 'Coquimbo', 'short_name': 'Coquimbo', 'types': ['administrative_area_level_1', 'political']}, {'long_name': 'Chile', 'short_name': 'CL', 'types': ['country', 'political']}], 'formatted_address': 'Coquimbo, Chile', 'geometry': {'bounds': {'northeast': {'lat': -29.9331593, 'lng': -71.2204747}, 'southwest': {'lat': -30.0077835, 'lng': -71.3769061}}, 'location': {'lat': -29.9590009, 'lng': -71.3389183}, 'location_type': 'APPROXIMATE', 'viewport': {'northeast': {'lat': -29.9331593, 'lng': -71.2204747}, 'southwest': {'lat': -30.0077835, 'lng': -71.3769061}}}, 'partial_match': True, 'place_id': 'ChIJXdJls83ZkZYRwFyJMScR_Oc', 'types': ['locality', 'political']}], 'status': 'OK'}
{'results': [{'address_components': [{'long_name': 'Combarbalá', 'short_name': 'Combarbalá', 'types': ['locality', 'political']}, {'long_name': 'Combarbala', 'short_name': 'Combarbala', 'types': ['administrative_area_level_3', 'political']}, {'long_name': 'Limarí Province', 'short_name': 'Limarí Province', 'types': ['administrative_area_level_2', 'political']}, {'long_name': 'Coquimbo', 'short_name': 'Coquimbo', 'types': ['administrative_area_level_1', 'political']}, {'long_name': 'Chile', 'short_name': 'CL', 'types': ['country', 'political']}], 'formatted_address': 'Combarbalá, Combarbala, Coquimbo, Chile', 'geometry': {'bounds': {'northeast': {'lat': -31.1722906, 'lng': -70.99326479999999}, 'southwest': {'lat': -31.1866418, 'lng': -71.0138116}}, 'location': {'lat': -31.1790967, 'lng': -71.00509579999999}, 'location_type': 'APPROXIMATE', 'viewport': {'northeast': {'lat': -31.1722906, 'lng': -70.99326479999999}, 'southwest': {'lat': -31.1866418, 'lng': -71.0138116}}}, 'partial_match': True, 'place_id': 'ChIJOyjyUq4Rj5YRzen6QbfD4tw', 'types': ['locality', 'political']}], 'status': 'OK'}
{'results': [{'address_components': [{'long_name': 'Coquimbo', 'short_name': 'Coquimbo', 'types': ['locality', 'political']}, {'long_name': 'Coquimbo', 'short_name': 'Coquimbo', 'types': ['administrative_area_level_3', 'political']}, {'long_name': 'Elqui Province', 'short_name': 'Elqui Province', 'types': ['administrative_area_level_2', 'political']}, {'long_name': 'Coquimbo', 'short_name': 'Coquimbo', 'types': ['administrative_area_level_1', 'political']}, {'long_name': 'Chile', 'short_name': 'CL', 'types': ['country', 'political']}], 'formatted_address': 'Coquimbo, Chile', 'geometry': {'bounds': {'northeast': {'lat': -29.9331593, 'lng': -71.2204747}, 'southwest': {'lat': -30.0077835, 'lng': -71.3769061}}, 'location': {'lat': -29.9590009, 'lng': -71.3389183}, 'location_type': 'APPROXIMATE', 'viewport': {'northeast': {'lat': -29.9331593, 'lng': -71.2204747}, 'southwest': {'lat': -30.0077835, 'lng': -71.3769061}}}, 'partial_match': True, 'place_id': 'ChIJXdJls83ZkZYRwFyJMScR_Oc', 'types': ['locality', 'political']}], 'status': 'OK'}
{'results': [{'address_components': [{'long_name': 'Illapel', 'short_name': 'Illapel', 'types': ['locality', 'political']}, {'long_name': 'Illapel', 'short_name': 'Illapel', 'types': ['administrative_area_level_3', 'political']}, {'long_name': 'Choapa Province', 'short_name': 'Choapa Province', 'types': ['administrative_area_level_2', 'political']}, {'long_name': 'Coquimbo', 'short_name': 'Coquimbo', 'types': ['administrative_area_level_1', 'political']}, {'long_name': 'Chile', 'short_name': 'CL', 'types': ['country', 'political']}], 'formatted_address': 'Illapel, Coquimbo, Chile', 'geometry': {'bounds': {'northeast': {'lat': -31.61993979999999, 'lng': -71.1443549}, 'southwest': {'lat': -31.64835609999999, 'lng': -71.1977579}}, 'location': {'lat': -31.6308, 'lng': -71.1653}, 'location_type': 'APPROXIMATE', 'viewport': {'northeast': {'lat': -31.61993979999999, 'lng': -71.1443549}, 'southwest': {'lat': -31.64835609999999, 'lng': -71.1977579}}}, 'partial_match': True, 'place_id': 'ChIJA55jUPsyj5YRrxOFr03axC8', 'types': ['locality', 'political']}], 'status': 'OK'}
{'results': [{'address_components': [{'long_name': 'La Higuera', 'short_name': 'La Higuera', 'types': ['locality', 'political']}, {'long_name': 'La Higuera', 'short_name': 'La Higuera', 'types': ['administrative_area_level_3', 'political']}, {'long_name': 'Elqui Province', 'short_name': 'Elqui Province', 'types': ['administrative_area_level_2', 'political']}, {'long_name': 'Coquimbo', 'short_name': 'Coquimbo', 'types': ['administrative_area_level_1', 'political']}, {'long_name': 'Chile', 'short_name': 'CL', 'types': ['country', 'political']}], 'formatted_address': 'La Higuera, Coquimbo, Chile', 'geometry': {'location': {'lat': -29.5119534, 'lng': -71.2000844}, 'location_type': 'APPROXIMATE', 'viewport': {'northeast': {'lat': -29.5022427, 'lng': -71.184077}, 'southwest': {'lat': -29.5216632, 'lng': -71.2160918}}}, 'partial_match': True, 'place_id': 'ChIJeavgqOzwkJYR5tsSh8VQPiY', 'types': ['locality', 'political']}], 'status': 'OK'}
{'results': [{'address_components': [{'long_name': 'La Serena', 'short_name': 'La Serena', 'types': ['locality', 'political']}, {'long_name': 'La Serena', 'short_name': 'La Serena', 'types': ['administrative_area_level_3', 'political']}, {'long_name': 'Elqui Province', 'short_name': 'Elqui Province', 'types': ['administrative_area_level_2', 'political']}, {'long_name': 'Coquimbo', 'short_name': 'Coquimbo', 'types': ['administrative_area_level_1', 'political']}, {'long_name': 'Chile', 'short_name': 'CL', 'types': ['country', 'political']}], 'formatted_address': 'La Serena, Coquimbo, Chile', 'geometry': {'bounds': {'northeast': {'lat': -29.8558036, 'lng': -71.1994144}, 'southwest': {'lat': -29.9597722, 'lng': -71.2894809}}, 'location': {'lat': -29.9026691, 'lng': -71.2519374}, 'location_type': 'APPROXIMATE', 'viewport': {'northeast': {'lat': -29.8558036, 'lng': -71.1994144}, 'southwest': {'lat': -29.9597722, 'lng': -71.2894809}}}, 'partial_match': True, 'place_id': 'ChIJyfOJk2TKkZYRy0zY0bOHF4o', 'types': ['locality', 'political']}], 'status': 'OK'}
{'results': [{'address_components': [{'long_name': 'Los Vilos', 'short_name': 'Los Vilos', 'types': ['locality', 'political']}, {'long_name': 'Los Vilos', 'short_name': 'Los Vilos', 'types': ['administrative_area_level_3', 'political']}, {'long_name': 'Choapa Province', 'short_name': 'Choapa Province', 'types': ['administrative_area_level_2', 'political']}, {'long_name': 'Coquimbo', 'short_name': 'Coquimbo', 'types': ['administrative_area_level_1', 'political']}, {'long_name': 'Chile', 'short_name': 'CL', 'types': ['country', 'political']}], 'formatted_address': 'Los Vilos, Coquimbo, Chile', 'geometry': {'bounds': {'northeast': {'lat': -31.8948637, 'lng': -71.4902307}, 'southwest': {'lat': -31.9249139, 'lng': -71.51985619999999}}, 'location': {'lat': -31.9121865, 'lng': -71.5112017}, 'location_type': 'APPROXIMATE', 'viewport': {'northeast': {'lat': -31.8948637, 'lng': -71.4902307}, 'southwest': {'lat': -31.9249139, 'lng': -71.51985619999999}}}, 'partial_match': True, 'place_id': 'ChIJz6_yM0AhiZYRBzuF6-7jvDs', 'types': ['locality', 'political']}], 'status': 'OK'}
{'results': [{'address_components': [{'long_name': 'Monte Patria', 'short_name': 'Monte Patria', 'types': ['locality', 'political']}, {'long_name': 'Monte Patria', 'short_name': 'Monte Patria', 'types': ['administrative_area_level_3', 'political']}, {'long_name': 'Limarí Province', 'short_name': 'Limarí Province', 'types': ['administrative_area_level_2', 'political']}, {'long_name': 'Coquimbo', 'short_name': 'Coquimbo', 'types': ['administrative_area_level_1', 'political']}, {'long_name': 'Chile', 'short_name': 'CL', 'types': ['country', 'political']}], 'formatted_address': 'Monte Patria, Coquimbo, Chile', 'geometry': {'location': {'lat': -30.6978944, 'lng': -70.9586889}, 'location_type': 'APPROXIMATE', 'viewport': {'northeast': {'lat': -30.6882995, 'lng': -70.94268149999999}, 'southwest': {'lat': -30.7074884, 'lng': -70.97469629999999}}}, 'partial_match': True, 'place_id': 'ChIJ2bh8q2x2j5YRcQTP_Qyu0qE', 'types': ['locality', 'political']}], 'status': 'OK'}
{'results': [{'address_components': [{'long_name': 'Ovalle', 'short_name': 'Ovalle', 'types': ['locality', 'political']}, {'long_name': 'Ovalle', 'short_name': 'Ovalle', 'types': ['administrative_area_level_3', 'political']}, {'long_name': 'Limarí Province', 'short_name': 'Limarí Province', 'types': ['administrative_area_level_2', 'political']}, {'long_name': 'Coquimbo', 'short_name': 'Coquimbo', 'types': ['administrative_area_level_1', 'political']}, {'long_name': 'Chile', 'short_name': 'CL', 'types': ['country', 'political']}], 'formatted_address': 'Ovalle, Coquimbo, Chile', 'geometry': {'bounds': {'northeast': {'lat': -30.5670018, 'lng': -71.17581750000001}, 'southwest': {'lat': -30.6173423, 'lng': -71.2355388}}, 'location': {'lat': -30.604304, 'lng': -71.19698819999999}, 'location_type': 'APPROXIMATE', 'viewport': {'northeast': {'lat': -30.5670018, 'lng': -71.17581750000001}, 'southwest': {'lat': -30.6173423, 'lng': -71.2355388}}}, 'partial_match': True, 'place_id': 'ChIJr6Omn9hNjpYRnJ_nO-wQ3Bw', 'types': ['locality', 'political']}], 'status': 'OK'}
{'results': [{'address_components': [{'long_name': 'Paiguano', 'short_name': 'Paiguano', 'types': ['locality', 'political']}, {'long_name': 'Paiguano', 'short_name': 'Paiguano', 'types': ['administrative_area_level_3', 'political']}, {'long_name': 'Elqui Province', 'short_name': 'Elqui Province', 'types': ['administrative_area_level_2', 'political']}, {'long_name': 'Coquimbo', 'short_name': 'Coquimbo', 'types': ['administrative_area_level_1', 'political']}, {'long_name': 'Chile', 'short_name': 'CL', 'types': ['country', 'political']}], 'formatted_address': 'Paiguano, Coquimbo, Chile', 'geometry': {'location': {'lat': -30.0276898, 'lng': -70.5178142}, 'location_type': 'APPROXIMATE', 'viewport': {'northeast': {'lat': -30.0180289, 'lng': -70.5018068}, 'southwest': {'lat': -30.0373497, 'lng': -70.5338216}}}, 'partial_match': True, 'place_id': 'ChIJiV6c9pgGkJYR2DeHBCvXff4', 'types': ['locality', 'political']}], 'status': 'OK'}
{'results': [{'address_components': [{'long_name': 'Punitaqui', 'short_name': 'Punitaqui', 'types': ['locality', 'political']}, {'long_name': 'Punitaqui', 'short_name': 'Punitaqui', 'types': ['administrative_area_level_3', 'political']}, {'long_name': 'Limarí Province', 'short_name': 'Limarí Province', 'types': ['administrative_area_level_2', 'political']}, {'long_name': 'Coquimbo', 'short_name': 'Coquimbo', 'types': ['administrative_area_level_1', 'political']}, {'long_name': 'Chile', 'short_name': 'CL', 'types': ['country', 'political']}], 'formatted_address': 'Punitaqui, Coquimbo, Chile', 'geometry': {'location': {'lat': -30.8260995, 'lng': -71.2577912}, 'location_type': 'APPROXIMATE', 'viewport': {'northeast': {'lat': -30.8165174, 'lng': -71.2417838}, 'southwest': {'lat': -30.8356807, 'lng': -71.27379859999999}}}, 'partial_match': True, 'place_id': 'ChIJCw1cRAtWjpYR6sWesZYJeDk', 'types': ['locality', 'political']}], 'status': 'OK'}
{'results': [{'address_components': [{'long_name': 'Río Hurtado', 'short_name': 'Río Hurtado', 'types': ['locality', 'political']}, {'long_name': 'Río Hurtado', 'short_name': 'Río Hurtado', 'types': ['administrative_area_level_3', 'political']}, {'long_name': 'Limarí Province', 'short_name': 'Limarí Province', 'types': ['administrative_area_level_2', 'political']}, {'long_name': 'Coquimbo', 'short_name': 'Coquimbo', 'types': ['administrative_area_level_1', 'political']}, {'long_name': 'Chile', 'short_name': 'CL', 'types': ['country', 'political']}], 'formatted_address': 'Río Hurtado, Coquimbo, Chile', 'geometry': {'location': {'lat': -30.266667, 'lng': -70.666667}, 'location_type': 'APPROXIMATE', 'viewport': {'northeast': {'lat': -30.2570295, 'lng': -70.65065960000001}, 'southwest': {'lat': -30.2763036, 'lng': -70.6826744}}}, 'partial_match': True, 'place_id': 'ChIJw8OPHo7tj5YRqDI5YE_d_yY', 'types': ['locality', 'political']}], 'status': 'OK'}
{'results': [{'address_components': [{'long_name': 'Salamanca', 'short_name': 'Salamanca', 'types': ['locality', 'political']}, {'long_name': 'Salamanca', 'short_name': 'Salamanca', 'types': ['administrative_area_level_3', 'political']}, {'long_name': 'Choapa Province', 'short_name': 'Choapa Province', 'types': ['administrative_area_level_2', 'political']}, {'long_name': 'Coquimbo', 'short_name': 'Coquimbo', 'types': ['administrative_area_level_1', 'political']}, {'long_name': 'Chile', 'short_name': 'CL', 'types': ['country', 'political']}], 'formatted_address': 'Salamanca, Coquimbo, Chile', 'geometry': {'bounds': {'northeast': {'lat': -31.7665186, 'lng': -70.949663}, 'southwest': {'lat': -31.7920107, 'lng': -70.9821824}}, 'location': {'lat': -31.782493, 'lng': -70.96071049999999}, 'location_type': 'APPROXIMATE', 'viewport': {'northeast': {'lat': -31.7665186, 'lng': -70.949663}, 'southwest': {'lat': -31.7920107, 'lng': -70.9821824}}}, 'partial_match': True, 'place_id': 'ChIJyWCYfn29iJYRKAIEKqoMELk', 'types': ['locality', 'political']}], 'status': 'OK'}
{'results': [{'address_components': [{'long_name': 'Vicuña', 'short_name': 'Vicuña', 'types': ['locality', 'political']}, {'long_name': 'Vicuña', 'short_name': 'Vicuña', 'types': ['administrative_area_level_3', 'political']}, {'long_name': 'Elqui Province', 'short_name': 'Elqui Province', 'types': ['administrative_area_level_2', 'political']}, {'long_name': 'Coquimbo', 'short_name': 'Coquimbo', 'types': ['administrative_area_level_1', 'political']}, {'long_name': 'Chile', 'short_name': 'CL', 'types': ['country', 'political']}], 'formatted_address': 'Vicuña, Coquimbo, Chile', 'geometry': {'location': {'lat': -30.0319, 'lng': -70.7081}, 'location_type': 'APPROXIMATE', 'viewport': {'northeast': {'lat': -30.0222395, 'lng': -70.6920926}, 'southwest': {'lat': -30.0415595, 'lng': -70.7241074}}}, 'partial_match': True, 'place_id': 'ChIJQxfhMu8JkJYR9I8pPR_cbHc', 'types': ['locality', 'political']}], 'status': 'OK'}
{'results': [{'address_components': [{'long_name': 'Algarrobo', 'short_name': 'Algarrobo', 'types': ['locality', 'political']}, {'long_name': 'Algarrobo', 'short_name': 'Algarrobo', 'types': ['administrative_area_level_3', 'political']}, {'long_name': 'San Antonio Province', 'short_name': 'San Antonio Province', 'types': ['administrative_area_level_2', 'political']}, {'long_name': 'Valparaíso', 'short_name': 'Valparaíso', 'types': ['administrative_area_level_1', 'political']}, {'long_name': 'Chile', 'short_name': 'CL', 'types': ['country', 'political']}], 'formatted_address': 'Algarrobo, Valparaíso, Chile', 'geometry': {'bounds': {'northeast': {'lat': -33.3515567, 'lng': -71.6419461}, 'southwest': {'lat': -33.3843039, 'lng': -71.6953308}}, 'location': {'lat': -33.3647762, 'lng': -71.67055340000002}, 'location_type': 'APPROXIMATE', 'viewport': {'northeast': {'lat': -33.3515567, 'lng': -71.6419461}, 'southwest': {'lat': -33.3843039, 'lng': -71.6953308}}}, 'partial_match': True, 'place_id': 'ChIJh5YXA2ARYpYR5T8bgWHc2LE', 'types': ['locality', 'political']}], 'status': 'OK'}
{'results': [{'address_components': [{'long_name': 'Cabildo', 'short_name': 'Cabildo', 'types': ['locality', 'political']}, {'long_name': 'Cabildo', 'short_name': 'Cabildo', 'types': ['administrative_area_level_3', 'political']}, {'long_name': 'Petorca Province', 'short_name': 'Petorca Province', 'types': ['administrative_area_level_2', 'political']}, {'long_name': 'Valparaíso', 'short_name': 'Valparaíso', 'types': ['administrative_area_level_1', 'political']}, {'long_name': 'Chile', 'short_name': 'CL', 'types': ['country', 'political']}], 'formatted_address': 'Cabildo, Valparaíso, Chile', 'geometry': {'bounds': {'northeast': {'lat': -32.4201928, 'lng': -71.0549759}, 'southwest': {'lat': -32.4400227, 'lng': -71.08617009999999}}, 'location': {'lat': -32.4258064, 'lng': -71.0661621}, 'location_type': 'APPROXIMATE', 'viewport': {'northeast': {'lat': -32.4201928, 'lng': -71.0549759}, 'southwest': {'lat': -32.4400227, 'lng': -71.08617009999999}}}, 'partial_match': True, 'place_id': 'ChIJRSNjgWZmiJYRrod7cYGIc8k', 'types': ['locality', 'political']}], 'status': 'OK'}
{'results': [{'address_components': [{'long_name': 'La Calera', 'short_name': 'La Calera', 'types': ['locality', 'political']}, {'long_name': 'Calera', 'short_name': 'Calera', 'types': ['administrative_area_level_3', 'political']}, {'long_name': 'Quillota Province', 'short_name': 'Quillota Province', 'types': ['administrative_area_level_2', 'political']}, {'long_name': 'Valparaíso', 'short_name': 'Valparaíso', 'types': ['administrative_area_level_1', 'political']}, {'long_name': 'Chile', 'short_name': 'CL', 'types': ['country', 'political']}], 'formatted_address': 'La Calera, Calera, Valparaíso, Chile', 'geometry': {'bounds': {'northeast': {'lat': -32.7604517, 'lng': -71.14166209999999}, 'southwest': {'lat': -32.8019049, 'lng': -71.2277819}}, 'location': {'lat': -32.7873428, 'lng': -71.20732}, 'location_type': 'APPROXIMATE', 'viewport': {'northeast': {'lat': -32.7604517, 'lng': -71.14166209999999}, 'southwest': {'lat': -32.8019049, 'lng': -71.2277819}}}, 'partial_match': True, 'place_id': 'ChIJZ3AYYEXLiZYREA207yhY5dE', 'types': ['locality', 'political']}], 'status': 'OK'}
{'results': [{'address_components': [{'long_name': 'Calle Larga', 'short_name': 'Calle Larga', 'types': ['locality', 'political']}, {'long_name': 'Calle Larga', 'short_name': 'Calle Larga', 'types': ['administrative_area_level_3', 'political']}, {'long_name': 'Los Andes Province', 'short_name': 'Los Andes Province', 'types': ['administrative_area_level_2', 'political']}, {'long_name': 'Valparaíso', 'short_name': 'Valparaíso', 'types': ['administrative_area_level_1', 'political']}, {'long_name': 'Chile', 'short_name': 'CL', 'types': ['country', 'political']}], 'formatted_address': 'Calle Larga, Valparaíso, Chile', 'geometry': {'bounds': {'northeast': {'lat': -32.8497857, 'lng': -70.62050200000002}, 'southwest': {'lat': -32.8643398, 'lng': -70.6297289}}, 'location': {'lat': -32.857493, 'lng': -70.6258069}, 'location_type': 'APPROXIMATE', 'viewport': {'northeast': {'lat': -32.8497857, 'lng': -70.62050200000002}, 'southwest': {'lat': -32.8643398, 'lng': -70.6297289}}}, 'partial_match': True, 'place_id': 'ChIJUYgadzAbiJYRO_W9iWnrA9s', 'types': ['locality', 'political']}], 'status': 'OK'}
{'results': [{'address_components': [{'long_name': 'Cartagena', 'short_name': 'Cartagena', 'types': ['locality', 'political']}, {'long_name': 'Cartagena', 'short_name': 'Cartagena', 'types': ['administrative_area_level_3', 'political']}, {'long_name': 'San Antonio Province', 'short_name': 'San Antonio Province', 'types': ['administrative_area_level_2', 'political']}, {'long_name': 'Valparaíso', 'short_name': 'Valparaíso', 'types': ['administrative_area_level_1', 'political']}, {'long_name': 'Chile', 'short_name': 'CL', 'types': ['country', 'political']}], 'formatted_address': 'Cartagena, Valparaíso, Chile', 'geometry': {'bounds': {'northeast': {'lat': -33.5139303, 'lng': -71.5700853}, 'southwest': {'lat': -33.5629336, 'lng': -71.6267639}}, 'location': {'lat': -33.5482466, 'lng': -71.6045745}, 'location_type': 'APPROXIMATE', 'viewport': {'northeast': {'lat': -33.5139303, 'lng': -71.5700853}, 'southwest': {'lat': -33.5629336, 'lng': -71.6267639}}}, 'partial_match': True, 'place_id': 'ChIJIZzU0v9DYpYRcM48csetePA', 'types': ['locality', 'political']}], 'status': 'OK'}
{'results': [{'address_components': [{'long_name': 'Casablanca', 'short_name': 'Casablanca', 'types': ['locality', 'political']}, {'long_name': 'Casablanca', 'short_name': 'Casablanca', 'types': ['administrative_area_level_3', 'political']}, {'long_name': 'Valparaíso Province', 'short_name': 'Valparaíso Province', 'types': ['administrative_area_level_2', 'political']}, {'long_name': 'Valparaíso', 'short_name': 'Valparaíso', 'types': ['administrative_area_level_1', 'political']}, {'long_name': 'Chile', 'short_name': 'CL', 'types': ['country', 'political']}], 'formatted_address': 'Casablanca, Valparaíso, Chile', 'geometry': {'bounds': {'northeast': {'lat': -33.2988569, 'lng': -71.3886493}, 'southwest': {'lat': -33.3382251, 'lng': -71.4244203}}, 'location': {'lat': -33.3182828, 'lng': -71.4070899}, 'location_type': 'APPROXIMATE', 'viewport': {'northeast': {'lat': -33.2988569, 'lng': -71.3886493}, 'southwest': {'lat': -33.3382251, 'lng': -71.4244203}}}, 'partial_match': True, 'place_id': 'ChIJTXckPsZuYpYRrNEiyDifBMc', 'types': ['locality', 'political']}], 'status': 'OK'}
{'results': [{'address_components': [{'long_name': 'Catemu', 'short_name': 'Catemu', 'types': ['locality', 'political']}, {'long_name': 'Calle Larga', 'short_name': 'Calle Larga', 'types': ['administrative_area_level_3', 'political']}, {'long_name': 'Los Andes Province', 'short_name': 'Los Andes Province', 'types': ['administrative_area_level_2', 'political']}, {'long_name': 'Valparaíso', 'short_name': 'Valparaíso', 'types': ['administrative_area_level_1', 'political']}, {'long_name': 'Chile', 'short_name': 'CL', 'types': ['country', 'political']}], 'formatted_address': 'Catemu, Calle Larga, Valparaíso, Chile', 'geometry': {'bounds': {'northeast': {'lat': -32.8680429, 'lng': -70.6355253}, 'southwest': {'lat': -32.8876948, 'lng': -70.66129529999999}}, 'location': {'lat': -32.875133, 'lng': -70.64882899999999}, 'location_type': 'APPROXIMATE', 'viewport': {'northeast': {'lat': -32.8680429, 'lng': -70.6355253}, 'southwest': {'lat': -32.8876948, 'lng': -70.66129529999999}}}, 'partial_match': True, 'place_id': 'ChIJ8YJrK2AbiJYRQl-ewBZL5E4', 'types': ['locality', 'political']}], 'status': 'OK'}
{'results': [{'address_components': [{'long_name': 'Concón', 'short_name': 'Concón', 'types': ['locality', 'political']}, {'long_name': 'Concón', 'short_name': 'Concón', 'types': ['administrative_area_level_3', 'political']}, {'long_name': 'Valparaíso Province', 'short_name': 'Valparaíso Province', 'types': ['administrative_area_level_2', 'political']}, {'long_name': 'Valparaíso', 'short_name': 'Valparaíso', 'types': ['administrative_area_level_1', 'political']}, {'long_name': 'Chile', 'short_name': 'CL', 'types': ['country', 'political']}], 'formatted_address': 'Concón, Valparaíso, Chile', 'geometry': {'bounds': {'northeast': {'lat': -32.9177919, 'lng': -71.5064396}, 'southwest': {'lat': -32.9497586, 'lng': -71.5546841}}, 'location': {'lat': -32.9299468, 'lng': -71.51860649999999}, 'location_type': 'APPROXIMATE', 'viewport': {'northeast': {'lat': -32.9177919, 'lng': -71.5064396}, 'southwest': {'lat': -32.9497586, 'lng': -71.5546841}}}, 'partial_match': True, 'place_id': 'ChIJdy_yqHvbiZYR5OswoeW88EA', 'types': ['locality', 'political']}], 'status': 'OK'}
{'results': [{'address_components': [{'long_name': 'El Quisco', 'short_name': 'El Quisco', 'types': ['locality', 'political']}, {'long_name': 'El Quisco', 'short_name': 'El Quisco', 'types': ['administrative_area_level_3', 'political']}, {'long_name': 'San Antonio Province', 'short_name': 'San Antonio Province', 'types': ['administrative_area_level_2', 'political']}, {'long_name': 'Valparaíso', 'short_name': 'Valparaíso', 'types': ['administrative_area_level_1', 'political']}, {'long_name': 'Chile', 'short_name': 'CL', 'types': ['country', 'political']}], 'formatted_address': 'El Quisco, Valparaíso, Chile', 'geometry': {'bounds': {'northeast': {'lat': -33.3674988, 'lng': -71.6674668}, 'southwest': {'lat': -33.4210493, 'lng': -71.7056633}}, 'location': {'lat': -33.398596, 'lng': -71.6981538}, 'location_type': 'APPROXIMATE', 'viewport': {'northeast': {'lat': -33.3674988, 'lng': -71.6674668}, 'southwest': {'lat': -33.4210493, 'lng': -71.7056633}}}, 'partial_match': True, 'place_id': 'ChIJ81x_q8kWYpYRi75-gl5GO5k', 'types': ['locality', 'political']}], 'status': 'OK'}
{'results': [{'address_components': [{'long_name': 'El Tabo', 'short_name': 'El Tabo', 'types': ['locality', 'political']}, {'long_name': 'El Tabo', 'short_name': 'El Tabo', 'types': ['administrative_area_level_3', 'political']}, {'long_name': 'San Antonio Province', 'short_name': 'San Antonio Province', 'types': ['administrative_area_level_2', 'political']}, {'long_name': 'Valparaíso', 'short_name': 'Valparaíso', 'types': ['administrative_area_level_1', 'political']}, {'long_name': 'Chile', 'short_name': 'CL', 'types': ['country', 'political']}], 'formatted_address': 'El Tabo, Valparaíso, Chile', 'geometry': {'bounds': {'northeast': {'lat': -33.4368596, 'lng': -71.6158964}, 'southwest': {'lat': -33.4777448, 'lng': -71.67987029999999}}, 'location': {'lat': -33.4557162, 'lng': -71.66693409999999}, 'location_type': 'APPROXIMATE', 'viewport': {'northeast': {'lat': -33.4368596, 'lng': -71.6158964}, 'southwest': {'lat': -33.4777448, 'lng': -71.67987029999999}}}, 'partial_match': True, 'place_id': 'ChIJw3A-hHcWYpYRUg02DZXkHWA', 'types': ['locality', 'political']}], 'status': 'OK'}
{'results': [{'address_components': [{'long_name': 'Hijuelas', 'short_name': 'Hijuelas', 'types': ['locality', 'political']}, {'long_name': 'Hijuelas', 'short_name': 'Hijuelas', 'types': ['administrative_area_level_3', 'political']}, {'long_name': 'Quillota Province', 'short_name': 'Quillota Province', 'types': ['administrative_area_level_2', 'political']}, {'long_name': 'Valparaíso', 'short_name': 'Valparaíso', 'types': ['administrative_area_level_1', 'political']}, {'long_name': 'Chile', 'short_name': 'CL', 'types': ['country', 'political']}], 'formatted_address': 'Hijuelas, Valparaíso, Chile', 'geometry': {'bounds': {'northeast': {'lat': -32.7870573, 'lng': -71.0756169}, 'southwest': {'lat': -32.8493388, 'lng': -71.1694435}}, 'location': {'lat': -32.7986559, 'lng': -71.1463438}, 'location_type': 'APPROXIMATE', 'viewport': {'northeast': {'lat': -32.7870573, 'lng': -71.0756169}, 'southwest': {'lat': -32.8493388, 'lng': -71.1694435}}}, 'partial_match': True, 'place_id': 'ChIJ6yaxn_cxiJYRPpA0yaAxddk', 'types': ['locality', 'political']}], 'status': 'OK'}
{'results': [{'address_components': [{'long_name': 'Easter Island', 'short_name': 'Easter Island', 'types': ['establishment', 'natural_feature']}, {'long_name': 'Easter Island', 'short_name': 'Easter Island', 'types': ['administrative_area_level_3', 'political']}, {'long_name': 'Easter Island', 'short_name': 'Easter Island', 'types': ['administrative_area_level_2', 'political']}, {'long_name': 'Valparaíso', 'short_name': 'Valparaíso', 'types': ['administrative_area_level_1', 'political']}, {'long_name': 'Chile', 'short_name': 'CL', 'types': ['country', 'political']}], 'formatted_address': 'Easter Island, Valparaíso, Chile', 'geometry': {'bounds': {'northeast': {'lat': -27.0547319, 'lng': -109.2276952}, 'southwest': {'lat': -27.197228, 'lng': -109.4499342}}, 'location': {'lat': -27.112723, 'lng': -109.3496865}, 'location_type': 'APPROXIMATE', 'viewport': {'northeast': {'lat': -27.0547319, 'lng': -109.2276952}, 'southwest': {'lat': -27.197228, 'lng': -109.4499342}}}, 'partial_match': True, 'place_id': 'ChIJK67UqBfwR5kRti0qwO2z5bs', 'types': ['establishment', 'natural_feature']}], 'status': 'OK'}
{'results': [{'address_components': [{'long_name': 'Juan Fernández Islands', 'short_name': 'Juan Fernández Islands', 'types': ['administrative_area_level_3', 'political']}, {'long_name': 'Valparaíso Province', 'short_name': 'Valparaíso Province', 'types': ['administrative_area_level_2', 'political']}, {'long_name': 'Valparaíso', 'short_name': 'Valparaíso', 'types': ['administrative_area_level_1', 'political']}, {'long_name': 'Chile', 'short_name': 'CL', 'types': ['country', 'political']}], 'formatted_address': 'Juan Fernández Islands, Valparaíso, Chile', 'geometry': {'bounds': {'northeast': {'lat': -26.27314, 'lng': -78.76959459999999}, 'southwest': {'lat': -33.8163822, 'lng': -80.83777189999999}}, 'location': {'lat': -30.0447611, 'lng': -79.80368320000001}, 'location_type': 'APPROXIMATE', 'viewport': {'northeast': {'lat': -26.27314, 'lng': -78.76959459999999}, 'southwest': {'lat': -33.8163822, 'lng': -80.83777189999999}}}, 'partial_match': True, 'place_id': 'ChIJ11CudNnKAJcRMCVX0iFdSjM', 'types': ['administrative_area_level_3', 'political']}], 'status': 'OK'}
{'results': [{'address_components': [{'long_name': 'La Cruz', 'short_name': 'La Cruz', 'types': ['locality', 'political']}, {'long_name': 'La Cruz', 'short_name': 'La Cruz', 'types': ['administrative_area_level_3', 'political']}, {'long_name': 'Quillota Province', 'short_name': 'Quillota Province', 'types': ['administrative_area_level_2', 'political']}, {'long_name': 'Valparaíso', 'short_name': 'Valparaíso', 'types': ['administrative_area_level_1', 'political']}, {'long_name': 'Chile', 'short_name': 'CL', 'types': ['country', 'political']}], 'formatted_address': 'La Cruz, Valparaíso, Chile', 'geometry': {'location': {'lat': -32.8258069, 'lng': -71.2273055}, 'location_type': 'APPROXIMATE', 'viewport': {'northeast': {'lat': -32.8164301, 'lng': -71.2112981}, 'southwest': {'lat': -32.8351827, 'lng': -71.24331289999999}}}, 'partial_match': True, 'place_id': 'ChIJGeTDr_DMiZYRgDnCBnBVMm4', 'types': ['locality', 'political']}], 'status': 'OK'}
{'results': [{'address_components': [{'long_name': 'La Ligua', 'short_name': 'La Ligua', 'types': ['locality', 'political']}, {'long_name': 'La Ligua', 'short_name': 'La Ligua', 'types': ['administrative_area_level_3', 'political']}, {'long_name': 'Petorca Province', 'short_name': 'Petorca Province', 'types': ['administrative_area_level_2', 'political']}, {'long_name': 'Valparaíso', 'short_name': 'Valparaíso', 'types': ['administrative_area_level_1', 'political']}, {'long_name': 'Chile', 'short_name': 'CL', 'types': ['country', 'political']}], 'formatted_address': 'La Ligua, Valparaíso, Chile', 'geometry': {'bounds': {'northeast': {'lat': -32.4366742, 'lng': -71.214861}, 'southwest': {'lat': -32.4637012, 'lng': -71.25137110000001}}, 'location': {'lat': -32.44990180000001, 'lng': -71.2325958}, 'location_type': 'APPROXIMATE', 'viewport': {'northeast': {'lat': -32.4366742, 'lng': -71.214861}, 'southwest': {'lat': -32.4637012, 'lng': -71.25137110000001}}}, 'partial_match': True, 'place_id': 'ChIJZwTZAVoHiZYRZ1PmA5AqKnk', 'types': ['locality', 'political']}], 'status': 'OK'}
{'results': [{'address_components': [{'long_name': 'Los Andes', 'short_name': 'Los Andes', 'types': ['locality', 'political']}, {'long_name': 'Los Andes', 'short_name': 'Los Andes', 'types': ['administrative_area_level_3', 'political']}, {'long_name': 'Los Andes Province', 'short_name': 'Los Andes Province', 'types': ['administrative_area_level_2', 'political']}, {'long_name': 'Valparaíso', 'short_name': 'Valparaíso', 'types': ['administrative_area_level_1', 'political']}, {'long_name': 'Chile', 'short_name': 'CL', 'types': ['country', 'political']}], 'formatted_address': 'Los Andes, Valparaíso, Chile', 'geometry': {'bounds': {'northeast': {'lat': -32.8078844, 'lng': -70.5698738}, 'southwest': {'lat': -32.856198, 'lng': -70.624166}}, 'location': {'lat': -32.8337995, 'lng': -70.59721789999999}, 'location_type': 'APPROXIMATE', 'viewport': {'northeast': {'lat': -32.8078844, 'lng': -70.5698738}, 'southwest': {'lat': -32.856198, 'lng': -70.624166}}}, 'partial_match': True, 'place_id': 'ChIJKwvRWHlWfZYRbhwB1kV4MMs', 'types': ['locality', 'political']}], 'status': 'OK'}
{'results': [{'address_components': [{'long_name': 'Nogales', 'short_name': 'Nogales', 'types': ['locality', 'political']}, {'long_name': 'Nogales', 'short_name': 'Nogales', 'types': ['administrative_area_level_3', 'political']}, {'long_name': 'Quillota Province', 'short_name': 'Quillota Province', 'types': ['administrative_area_level_2', 'political']}, {'long_name': 'Valparaíso', 'short_name': 'Valparaíso', 'types': ['administrative_area_level_1', 'political']}, {'long_name': 'Chile', 'short_name': 'CL', 'types': ['country', 'political']}], 'formatted_address': 'Nogales, Valparaíso, Chile', 'geometry': {'bounds': {'northeast': {'lat': -32.7210552, 'lng': -71.1966474}, 'southwest': {'lat': -32.7508565, 'lng': -71.2192799}}, 'location': {'lat': -32.7333, 'lng': -71.2042115}, 'location_type': 'APPROXIMATE', 'viewport': {'northeast': {'lat': -32.7210552, 'lng': -71.1966474}, 'southwest': {'lat': -32.7508565, 'lng': -71.2192799}}}, 'partial_match': True, 'place_id': 'ChIJtZ2tDrpKiJYReSNYfFs7N6w', 'types': ['locality', 'political']}], 'status': 'OK'}
{'results': [{'address_components': [{'long_name': 'Olmué', 'short_name': 'Olmué', 'types': ['locality', 'political']}, {'long_name': 'Olmue', 'short_name': 'Olmue', 'types': ['administrative_area_level_3', 'political']}, {'long_name': 'Marga Marga', 'short_name': 'Marga Marga', 'types': ['administrative_area_level_2', 'political']}, {'long_name': 'Valparaíso', 'short_name': 'Valparaíso', 'types': ['administrative_area_level_1', 'political']}, {'long_name': 'Chile', 'short_name': 'CL', 'types': ['country', 'political']}], 'formatted_address': 'Olmué, Olmue, Valparaíso, Chile', 'geometry': {'bounds': {'northeast': {'lat': -32.9821218, 'lng': -71.1596951}, 'southwest': {'lat': -33.0141282, 'lng': -71.2215378}}, 'location': {'lat': -32.9958297, 'lng': -71.1812984}, 'location_type': 'APPROXIMATE', 'viewport': {'northeast': {'lat': -32.9821218, 'lng': -71.1596951}, 'southwest': {'lat': -33.0141282, 'lng': -71.2215378}}}, 'partial_match': True, 'place_id': 'ChIJYVtCLgkqiJYR2FHGo5KXiq4', 'types': ['locality', 'political']}], 'status': 'OK'}
{'results': [{'address_components': [{'long_name': 'Panquehue', 'short_name': 'Panquehue', 'types': ['locality', 'political']}, {'long_name': 'Panquehue', 'short_name': 'Panquehue', 'types': ['administrative_area_level_3', 'political']}, {'long_name': 'San Felipe de Aconcagua', 'short_name': 'San Felipe de Aconcagua', 'types': ['administrative_area_level_2', 'political']}, {'long_name': 'Valparaíso', 'short_name': 'Valparaíso', 'types': ['administrative_area_level_1', 'political']}, {'long_name': 'Chile', 'short_name': 'CL', 'types': ['country', 'political']}], 'formatted_address': 'Panquehue, Valparaíso, Chile', 'geometry': {'location': {'lat': -32.7670303, 'lng': -70.8333}, 'location_type': 'APPROXIMATE', 'viewport': {'northeast': {'lat': -32.7576473, 'lng': -70.8172926}, 'southwest': {'lat': -32.7764123, 'lng': -70.8493074}}}, 'partial_match': True, 'place_id': 'ChIJPY1th6c9iJYRYJw3xzk43lc', 'types': ['locality', 'political']}], 'status': 'OK'}
{'results': [{'address_components': [{'long_name': 'Papudo', 'short_name': 'Papudo', 'types': ['locality', 'political']}, {'long_name': 'Papudo', 'short_name': 'Papudo', 'types': ['administrative_area_level_3', 'political']}, {'long_name': 'Petorca Province', 'short_name': 'Petorca Province', 'types': ['administrative_area_level_2', 'political']}, {'long_name': 'Valparaíso', 'short_name': 'Valparaíso', 'types': ['administrative_area_level_1', 'political']}, {'long_name': 'Chile', 'short_name': 'CL', 'types': ['country', 'political']}], 'formatted_address': 'Papudo, Valparaíso, Chile', 'geometry': {'bounds': {'northeast': {'lat': -32.5002764, 'lng': -71.42172099999999}, 'southwest': {'lat': -32.5126141, 'lng': -71.461759}}, 'location': {'lat': -32.5072087, 'lng': -71.4485013}, 'location_type': 'APPROXIMATE', 'viewport': {'northeast': {'lat': -32.5002764, 'lng': -71.42172099999999}, 'southwest': {'lat': -32.5126141, 'lng': -71.461759}}}, 'partial_match': True, 'place_id': 'ChIJj35Yt0akiZYRVXSAc5afh1A', 'types': ['locality', 'political']}], 'status': 'OK'}
{'results': [{'address_components': [{'long_name': 'Petorca', 'short_name': 'Petorca', 'types': ['locality', 'political']}, {'long_name': 'Petorca', 'short_name': 'Petorca', 'types': ['administrative_area_level_3', 'political']}, {'long_name': 'Petorca Province', 'short_name': 'Petorca Province', 'types': ['administrative_area_level_2', 'political']}, {'long_name': 'Valparaíso', 'short_name': 'Valparaíso', 'types': ['administrative_area_level_1', 'political']}, {'long_name': 'Chile', 'short_name': 'CL', 'types': ['country', 'political']}], 'formatted_address': 'Petorca, Valparaíso, Chile', 'geometry': {'location': {'lat': -32.25, 'lng': -70.9333}, 'location_type': 'APPROXIMATE', 'viewport': {'northeast': {'lat': -32.2405629, 'lng': -70.9172926}, 'southwest': {'lat': -32.2594361, 'lng': -70.9493074}}}, 'partial_match': True, 'place_id': 'ChIJ4eu3z1PziJYRQNEmFo1uDwU', 'types': ['locality', 'political']}], 'status': 'OK'}
{'results': [{'address_components': [{'long_name': 'Puchuncaví', 'short_name': 'Puchuncaví', 'types': ['locality', 'political']}, {'long_name': 'Puchuncavi', 'short_name': 'Puchuncavi', 'types': ['administrative_area_level_3', 'political']}, {'long_name': 'Valparaíso Province', 'short_name': 'Valparaíso Province', 'types': ['administrative_area_level_2', 'political']}, {'long_name': 'Valparaíso', 'short_name': 'Valparaíso', 'types': ['administrative_area_level_1', 'political']}, {'long_name': 'Chile', 'short_name': 'CL', 'types': ['country', 'political']}], 'formatted_address': 'Puchuncaví, Puchuncavi, Valparaíso, Chile', 'geometry': {'location': {'lat': -32.722005, 'lng': -71.4117004}, 'location_type': 'APPROXIMATE', 'viewport': {'northeast': {'lat': -32.7126173, 'lng': -71.395693}, 'southwest': {'lat': -32.7313918, 'lng': -71.4277078}}}, 'partial_match': True, 'place_id': 'ChIJ2cAV9IC4iZYRW5_YWeMyNN0', 'types': ['locality', 'political']}], 'status': 'OK'}
{'results': [{'address_components': [{'long_name': 'Putaendo', 'short_name': 'Putaendo', 'types': ['locality', 'political']}, {'long_name': 'Putaendo', 'short_name': 'Putaendo', 'types': ['administrative_area_level_3', 'political']}, {'long_name': 'San Felipe de Aconcagua', 'short_name': 'San Felipe de Aconcagua', 'types': ['administrative_area_level_2', 'political']}, {'long_name': 'Valparaíso', 'short_name': 'Valparaíso', 'types': ['administrative_area_level_1', 'political']}, {'long_name': 'Chile', 'short_name': 'CL', 'types': ['country', 'political']}], 'formatted_address': 'Putaendo, Valparaíso, Chile', 'geometry': {'bounds': {'northeast': {'lat': -32.6161527, 'lng': -70.7094588}, 'southwest': {'lat': -32.6366877, 'lng': -70.7216881}}, 'location': {'lat': -32.628461, 'lng': -70.7177434}, 'location_type': 'APPROXIMATE', 'viewport': {'northeast': {'lat': -32.6161527, 'lng': -70.7094588}, 'southwest': {'lat': -32.6366877, 'lng': -70.7216881}}}, 'partial_match': True, 'place_id': 'ChIJ486RZjlxiJYR6Qi8ct9vEUk', 'types': ['locality', 'political']}], 'status': 'OK'}
{'results': [{'address_components': [{'long_name': 'Quillota', 'short_name': 'Quillota', 'types': ['locality', 'political']}, {'long_name': 'Quillota', 'short_name': 'Quillota', 'types': ['administrative_area_level_3', 'political']}, {'long_name': 'Quillota Province', 'short_name': 'Quillota Province', 'types': ['administrative_area_level_2', 'political']}, {'long_name': 'Valparaíso', 'short_name': 'Valparaíso', 'types': ['administrative_area_level_1', 'political']}, {'long_name': 'Chile', 'short_name': 'CL', 'types': ['country', 'political']}], 'formatted_address': 'Quillota, Valparaíso, Chile', 'geometry': {'bounds': {'northeast': {'lat': -32.8383914, 'lng': -71.219517}, 'southwest': {'lat': -32.9042025, 'lng': -71.2769689}}, 'location': {'lat': -32.8803027, 'lng': -71.2497156}, 'location_type': 'APPROXIMATE', 'viewport': {'northeast': {'lat': -32.8383914, 'lng': -71.219517}, 'southwest': {'lat': -32.9042025, 'lng': -71.2769689}}}, 'partial_match': True, 'place_id': 'ChIJxyTX7I_NiZYRkJ4rY4MF4u8', 'types': ['locality', 'political']}], 'status': 'OK'}
{'results': [{'address_components': [{'long_name': 'Quilpué', 'short_name': 'Quilpué', 'types': ['locality', 'political']}, {'long_name': 'Quilpue', 'short_name': 'Quilpue', 'types': ['administrative_area_level_3', 'political']}, {'long_name': 'Marga Marga', 'short_name': 'Marga Marga', 'types': ['administrative_area_level_2', 'political']}, {'long_name': 'Valparaíso', 'short_name': 'Valparaíso', 'types': ['administrative_area_level_1', 'political']}, {'long_name': 'Chile', 'short_name': 'CL', 'types': ['country', 'political']}], 'formatted_address': 'Quilpué, Quilpue, Valparaíso, Chile', 'geometry': {'bounds': {'northeast': {'lat': -33.0255014, 'lng': -71.4006114}, 'southwest': {'lat': -33.0781055, 'lng': -71.4854995}}, 'location': {'lat': -33.0482707, 'lng': -71.4408752}, 'location_type': 'APPROXIMATE', 'viewport': {'northeast': {'lat': -33.0255014, 'lng': -71.4006114}, 'southwest': {'lat': -33.0781055, 'lng': -71.4854995}}}, 'partial_match': True, 'place_id': 'ChIJp6W1ovV-YpYRkp8yfz-l2VA', 'types': ['locality', 'political']}], 'status': 'OK'}
{'results': [{'address_components': [{'long_name': 'Quintero', 'short_name': 'Quintero', 'types': ['locality', 'political']}, {'long_name': 'Quintero', 'short_name': 'Quintero', 'types': ['administrative_area_level_3', 'political']}, {'long_name': 'Valparaíso Province', 'short_name': 'Valparaíso Province', 'types': ['administrative_area_level_2', 'political']}, {'long_name': 'Valparaíso', 'short_name': 'Valparaíso', 'types': ['administrative_area_level_1', 'political']}, {'long_name': 'Chile', 'short_name': 'CL', 'types': ['country', 'political']}], 'formatted_address': 'Quintero, Valparaíso, Chile', 'geometry': {'bounds': {'northeast': {'lat': -32.7653277, 'lng': -71.5235259}, 'southwest': {'lat': -32.8071882, 'lng': -71.54413509999999}}, 'location': {'lat': -32.7723101, 'lng': -71.5333}, 'location_type': 'APPROXIMATE', 'viewport': {'northeast': {'lat': -32.7653277, 'lng': -71.5235259}, 'southwest': {'lat': -32.8071882, 'lng': -71.54413509999999}}}, 'partial_match': True, 'place_id': 'ChIJmWpkdWzAiZYRzSP51K-77zk', 'types': ['locality', 'political']}], 'status': 'OK'}
{'results': [{'address_components': [{'long_name': 'Rinconada', 'short_name': 'Rinconada', 'types': ['locality', 'political']}, {'long_name': 'Rinconada', 'short_name': 'Rinconada', 'types': ['administrative_area_level_3', 'political']}, {'long_name': 'Los Andes Province', 'short_name': 'Los Andes Province', 'types': ['administrative_area_level_2', 'political']}, {'long_name': 'Valparaíso', 'short_name': 'Valparaíso', 'types': ['administrative_area_level_1', 'political']}, {'long_name': 'Chile', 'short_name': 'CL', 'types': ['country', 'political']}], 'formatted_address': 'Rinconada, Valparaíso, Chile', 'geometry': {'location': {'lat': -32.8352416, 'lng': -70.7010367}, 'location_type': 'APPROXIMATE', 'viewport': {'northeast': {'lat': -32.8258658, 'lng': -70.6850293}, 'southwest': {'lat': -32.8446164, 'lng': -70.7170441}}}, 'partial_match': True, 'place_id': 'ChIJsdMsZN0biJYRONbjUil8A_U', 'types': ['locality', 'political']}], 'status': 'OK'}
{'results': [{'address_components': [{'long_name': 'San Antonio', 'short_name': 'San Antonio', 'types': ['locality', 'political']}, {'long_name': 'San Antonio', 'short_name': 'San Antonio', 'types': ['administrative_area_level_3', 'political']}, {'long_name': 'San Antonio Province', 'short_name': 'San Antonio Province', 'types': ['administrative_area_level_2', 'political']}, {'long_name': 'Valparaíso', 'short_name': 'Valparaíso', 'types': ['administrative_area_level_1', 'political']}, {'long_name': 'Chile', 'short_name': 'CL', 'types': ['country', 'political']}], 'formatted_address': 'San Antonio, Valparaíso, Chile', 'geometry': {'bounds': {'northeast': {'lat': -33.5619786, 'lng': -71.59268709999999}, 'southwest': {'lat': -33.6244985, 'lng': -71.6299234}}, 'location': {'lat': -33.5922807, 'lng': -71.6055123}, 'location_type': 'APPROXIMATE', 'viewport': {'northeast': {'lat': -33.5619786, 'lng': -71.59268709999999}, 'southwest': {'lat': -33.6244985, 'lng': -71.6299234}}}, 'partial_match': True, 'place_id': 'ChIJr_J2RVE4YpYRoiokp7sFMRU', 'types': ['locality', 'political']}], 'status': 'OK'}
{'results': [{'address_components': [{'long_name': 'San Esteban', 'short_name': 'San Esteban', 'types': ['locality', 'political']}, {'long_name': 'San Esteban', 'short_name': 'San Esteban', 'types': ['administrative_area_level_3', 'political']}, {'long_name': 'Los Andes Province', 'short_name': 'Los Andes Province', 'types': ['administrative_area_level_2', 'political']}, {'long_name': 'Valparaíso', 'short_name': 'Valparaíso', 'types': ['administrative_area_level_1', 'political']}, {'long_name': 'Chile', 'short_name': 'CL', 'types': ['country', 'political']}], 'formatted_address': 'San Esteban, Valparaíso, Chile', 'geometry': {'bounds': {'northeast': {'lat': -32.794226, 'lng': -70.5681043}, 'southwest': {'lat': -32.8110507, 'lng': -70.5908271}}, 'location': {'lat': -32.8004995, 'lng': -70.5798032}, 'location_type': 'APPROXIMATE', 'viewport': {'northeast': {'lat': -32.794226, 'lng': -70.5681043}, 'southwest': {'lat': -32.8110507, 'lng': -70.5908271}}}, 'partial_match': True, 'place_id': 'ChIJBTABgGPhh5YRMgWN5zowrsE', 'types': ['locality', 'political']}], 'status': 'OK'}
{'results': [{'address_components': [{'long_name': 'San Felipe', 'short_name': 'San Felipe', 'types': ['locality', 'political']}, {'long_name': 'San Felipe', 'short_name': 'San Felipe', 'types': ['administrative_area_level_3', 'political']}, {'long_name': 'San Felipe de Aconcagua', 'short_name': 'San Felipe de Aconcagua', 'types': ['administrative_area_level_2', 'political']}, {'long_name': 'Valparaíso', 'short_name': 'Valparaíso', 'types': ['administrative_area_level_1', 'political']}, {'long_name': 'Chile', 'short_name': 'CL', 'types': ['country', 'political']}], 'formatted_address': 'San Felipe, Valparaíso, Chile', 'geometry': {'bounds': {'northeast': {'lat': -32.7313796, 'lng': -70.6923782}, 'southwest': {'lat': -32.7684077, 'lng': -70.74683019999999}}, 'location': {'lat': -32.75, 'lng': -70.7208115}, 'location_type': 'APPROXIMATE', 'viewport': {'northeast': {'lat': -32.7313796, 'lng': -70.6923782}, 'southwest': {'lat': -32.7684077, 'lng': -70.74683019999999}}}, 'partial_match': True, 'place_id': 'ChIJM7j0X4MWiJYRoKIBdWKjb8I', 'types': ['locality', 'political']}], 'status': 'OK'}
{'results': [{'address_components': [{'long_name': '1680', 'short_name': '1680', 'types': ['street_number']}, {'long_name': 'Avenida España', 'short_name': 'Av. España', 'types': ['route']}, {'long_name': 'Valparaíso', 'short_name': 'Valparaíso', 'types': ['locality', 'political']}, {'long_name': 'Valparaíso', 'short_name': 'Valparaíso', 'types': ['administrative_area_level_3', 'political']}, {'long_name': 'Valparaiso', 'short_name': 'Valparaiso', 'types': ['administrative_area_level_2', 'political']}, {'long_name': 'Valparaíso', 'short_name': 'Valparaíso', 'types': ['administrative_area_level_1', 'political']}, {'long_name': 'Chile', 'short_name': 'CL', 'types': ['country', 'political']}], 'formatted_address': 'Av. España 1680, Valparaíso, Chile', 'geometry': {'location': {'lat': -33.0352386, 'lng': -71.5967794}, 'location_type': 'ROOFTOP', 'viewport': {'northeast': {'lat': -33.0338896197085, 'lng': -71.59543041970849}, 'southwest': {'lat': -33.0365875802915, 'lng': -71.59812838029151}}}, 'partial_match': True, 'place_id': 'ChIJL_ec1Y_giZYRKTlu6li17dQ', 'plus_code': {'compound_code': 'XC73+W7 Valparaíso, Chile', 'global_code': '47RCXC73+W7'}, 'types': ['establishment', 'point_of_interest', 'university']}], 'status': 'OK'}
{'results': [{'address_components': [{'long_name': 'Santo Domingo', 'short_name': 'Santo Domingo', 'types': ['locality', 'political']}, {'long_name': 'Santo Domingo', 'short_name': 'Santo Domingo', 'types': ['administrative_area_level_3', 'political']}, {'long_name': 'San Antonio Province', 'short_name': 'San Antonio Province', 'types': ['administrative_area_level_2', 'political']}, {'long_name': 'Valparaíso', 'short_name': 'Valparaíso', 'types': ['administrative_area_level_1', 'political']}, {'long_name': 'Chile', 'short_name': 'CL', 'types': ['country', 'political']}], 'formatted_address': 'Santo Domingo, Valparaíso, Chile', 'geometry': {'location': {'lat': -33.635833, 'lng': -71.628056}, 'location_type': 'APPROXIMATE', 'viewport': {'northeast': {'lat': -33.62654260000001, 'lng': -71.6120486}, 'southwest': {'lat': -33.6451224, 'lng': -71.6440634}}}, 'partial_match': True, 'place_id': 'ChIJdTIgknAzYpYRXlItkkfYaD4', 'types': ['locality', 'political']}], 'status': 'OK'}
{'results': [{'address_components': [{'long_name': 'Valparaiso', 'short_name': 'Valparaiso', 'types': ['locality', 'political']}, {'long_name': 'Center Township', 'short_name': 'Center Township', 'types': ['administrative_area_level_3', 'political']}, {'long_name': 'Porter County', 'short_name': 'Porter County', 'types': ['administrative_area_level_2', 'political']}, {'long_name': 'Indiana', 'short_name': 'IN', 'types': ['administrative_area_level_1', 'political']}, {'long_name': 'United States', 'short_name': 'US', 'types': ['country', 'political']}], 'formatted_address': 'Valparaiso, IN, USA', 'geometry': {'bounds': {'northeast': {'lat': 41.51203599999999, 'lng': -86.9974599}, 'southwest': {'lat': 41.4388139, 'lng': -87.109371}}, 'location': {'lat': 41.4730948, 'lng': -87.0611412}, 'location_type': 'APPROXIMATE', 'viewport': {'northeast': {'lat': 41.51203599999999, 'lng': -86.9974599}, 'southwest': {'lat': 41.4388139, 'lng': -87.109371}}}, 'partial_match': True, 'place_id': 'ChIJC0BDeA6aEYgRTELnjqNFwoA', 'types': ['locality', 'political']}], 'status': 'OK'}
{'results': [{'address_components': [{'long_name': 'Villa Alemana', 'short_name': 'Villa Alemana', 'types': ['locality', 'political']}, {'long_name': 'Villa Alemana', 'short_name': 'Villa Alemana', 'types': ['administrative_area_level_3', 'political']}, {'long_name': 'Marga Marga', 'short_name': 'Marga Marga', 'types': ['administrative_area_level_2', 'political']}, {'long_name': 'Valparaíso', 'short_name': 'Valparaíso', 'types': ['administrative_area_level_1', 'political']}, {'long_name': 'Chile', 'short_name': 'CL', 'types': ['country', 'political']}], 'formatted_address': 'Villa Alemana, Valparaíso, Chile', 'geometry': {'bounds': {'northeast': {'lat': -33.0255359, 'lng': -71.32830229999999}, 'southwest': {'lat': -33.0689652, 'lng': -71.4025381}}, 'location': {'lat': -33.0516935, 'lng': -71.3906234}, 'location_type': 'APPROXIMATE', 'viewport': {'northeast': {'lat': -33.0255359, 'lng': -71.32830229999999}, 'southwest': {'lat': -33.0689652, 'lng': -71.4025381}}}, 'partial_match': True, 'place_id': 'ChIJZwGW_i3WiZYR6VA5cCfpfmY', 'types': ['locality', 'political']}], 'status': 'OK'}
{'results': [{'address_components': [{'long_name': 'Viña del Mar', 'short_name': 'Viña', 'types': ['locality', 'political']}, {'long_name': 'Viña del Mar', 'short_name': 'Viña del Mar', 'types': ['administrative_area_level_3', 'political']}, {'long_name': 'Valparaíso Province', 'short_name': 'Valparaíso Province', 'types': ['administrative_area_level_2', 'political']}, {'long_name': 'Valparaíso', 'short_name': 'Valparaíso', 'types': ['administrative_area_level_1', 'political']}, {'long_name': 'Chile', 'short_name': 'CL', 'types': ['country', 'political']}], 'formatted_address': 'Viña del Mar, Valparaíso, Chile', 'geometry': {'bounds': {'northeast': {'lat': -32.9484554, 'lng': -71.472308}, 'southwest': {'lat': -33.0626024, 'lng': -71.5882031}}, 'location': {'lat': -33.0153481, 'lng': -71.55002759999999}, 'location_type': 'APPROXIMATE', 'viewport': {'northeast': {'lat': -32.9484554, 'lng': -71.472308}, 'southwest': {'lat': -33.0626024, 'lng': -71.5882031}}}, 'partial_match': True, 'place_id': 'ChIJVRLU6oTeiZYRP0E933beX44', 'types': ['locality', 'political']}], 'status': 'OK'}
{'results': [{'address_components': [{'long_name': 'Zapallar', 'short_name': 'Zapallar', 'types': ['locality', 'political']}, {'long_name': 'Zapallar', 'short_name': 'Zapallar', 'types': ['administrative_area_level_3', 'political']}, {'long_name': 'Petorca Province', 'short_name': 'Petorca Province', 'types': ['administrative_area_level_2', 'political']}, {'long_name': 'Valparaíso', 'short_name': 'Valparaíso', 'types': ['administrative_area_level_1', 'political']}, {'long_name': 'Chile', 'short_name': 'CL', 'types': ['country', 'political']}], 'formatted_address': 'Zapallar, Valparaíso, Chile', 'geometry': {'bounds': {'northeast': {'lat': -32.5477639, 'lng': -71.4495493}, 'southwest': {'lat': -32.560246, 'lng': -71.4671623}}, 'location': {'lat': -32.5538059, 'lng': -71.4581359}, 'location_type': 'APPROXIMATE', 'viewport': {'northeast': {'lat': -32.5477639, 'lng': -71.4495493}, 'southwest': {'lat': -32.560246, 'lng': -71.4671623}}}, 'partial_match': True, 'place_id': 'ChIJwWnF3UiwiZYRI7lX8QKJCAs', 'types': ['locality', 'political']}], 'status': 'OK'}
{'results': [{'address_components': [{'long_name': 'Alhué', 'short_name': 'Alhué', 'types': ['locality', 'political']}, {'long_name': 'Alhué', 'short_name': 'Alhué', 'types': ['administrative_area_level_3', 'political']}, {'long_name': 'Melipilla Province', 'short_name': 'Melipilla Province', 'types': ['administrative_area_level_2', 'political']}, {'long_name': 'Santiago Metropolitan Region', 'short_name': 'Santiago Metropolitan Region', 'types': ['administrative_area_level_1', 'political']}, {'long_name': 'Chile', 'short_name': 'CL', 'types': ['country', 'political']}], 'formatted_address': 'Alhué, Santiago Metropolitan Region, Chile', 'geometry': {'bounds': {'northeast': {'lat': -34.0166432, 'lng': -71.0827484}, 'southwest': {'lat': -34.0357632, 'lng': -71.12193169999999}}, 'location': {'lat': -34.0264691, 'lng': -71.1002881}, 'location_type': 'APPROXIMATE', 'viewport': {'northeast': {'lat': -34.0166432, 'lng': -71.0827484}, 'southwest': {'lat': -34.0357632, 'lng': -71.12193169999999}}}, 'partial_match': True, 'place_id': 'ChIJKy_q3AMNY5YRp-TDZlPDxJY', 'types': ['locality', 'political']}], 'status': 'OK'}
{'results': [{'address_components': [{'long_name': 'Buin', 'short_name': 'Buin', 'types': ['locality', 'political']}, {'long_name': 'Buin', 'short_name': 'Buin', 'types': ['administrative_area_level_3', 'political']}, {'long_name': 'Maipo Province', 'short_name': 'Maipo Province', 'types': ['administrative_area_level_2', 'political']}, {'long_name': 'Santiago Metropolitan Region', 'short_name': 'Santiago Metropolitan Region', 'types': ['administrative_area_level_1', 'political']}, {'long_name': 'Chile', 'short_name': 'CL', 'types': ['country', 'political']}], 'formatted_address': 'Buin, Santiago Metropolitan Region, Chile', 'geometry': {'bounds': {'northeast': {'lat': -33.7088752, 'lng': -70.72592879999999}, 'southwest': {'lat': -33.7503987, 'lng': -70.76659760000001}}, 'location': {'lat': -33.7313897, 'lng': -70.742431}, 'location_type': 'APPROXIMATE', 'viewport': {'northeast': {'lat': -33.7088752, 'lng': -70.72592879999999}, 'southwest': {'lat': -33.7503987, 'lng': -70.76659760000001}}}, 'partial_match': True, 'place_id': 'ChIJj7SfJgwhY5YRnUwv44RxHxs', 'types': ['locality', 'political']}], 'status': 'OK'}
{'results': [{'address_components': [{'long_name': 'Calera de Tango', 'short_name': 'Calera de Tango', 'types': ['locality', 'political']}, {'long_name': 'Calera de Tango', 'short_name': 'Calera de Tango', 'types': ['administrative_area_level_3', 'political']}, {'long_name': 'Maipo', 'short_name': 'Maipo', 'types': ['administrative_area_level_2', 'political']}, {'long_name': 'Región Metropolitana', 'short_name': 'Región Metropolitana', 'types': ['administrative_area_level_1', 'political']}, {'long_name': 'Chile', 'short_name': 'CL', 'types': ['country', 'political']}], 'formatted_address': 'Calera de Tango, Región Metropolitana, Chile', 'geometry': {'bounds': {'northeast': {'lat': -33.6232315, 'lng': -70.7516957}, 'southwest': {'lat': -33.6376535, 'lng': -70.7903587}}, 'location': {'lat': -33.6291031, 'lng': -70.7686968}, 'location_type': 'APPROXIMATE', 'viewport': {'northeast': {'lat': -33.6232315, 'lng': -70.7516957}, 'southwest': {'lat': -33.6376535, 'lng': -70.7903587}}}, 'partial_match': True, 'place_id': 'ChIJQ4uYSEbeYpYRLV2_nKznZIE', 'types': ['locality', 'political']}], 'status': 'OK'}
{'results': [{'address_components': [{'long_name': 'Cerrillos, Chile', 'short_name': 'Cerrillos, Chile', 'types': ['administrative_area_level_3', 'political']}, {'long_name': 'Santiago Province', 'short_name': 'Santiago Province', 'types': ['administrative_area_level_2', 'political']}, {'long_name': 'Santiago Metropolitan Region', 'short_name': 'Santiago Metropolitan Region', 'types': ['administrative_area_level_1', 'political']}, {'long_name': 'Chile', 'short_name': 'CL', 'types': ['country', 'political']}], 'formatted_address': 'Cerrillos, Chile, Santiago Metropolitan Region, Chile', 'geometry': {'bounds': {'northeast': {'lat': -33.4731618, 'lng': -70.6853335}, 'southwest': {'lat': -33.5314244, 'lng': -70.7398359}}, 'location': {'lat': -33.50101070000001, 'lng': -70.7098735}, 'location_type': 'APPROXIMATE', 'viewport': {'northeast': {'lat': -33.4731618, 'lng': -70.6853335}, 'southwest': {'lat': -33.5314244, 'lng': -70.7398359}}}, 'partial_match': True, 'place_id': 'ChIJze3PXFTbYpYRnxYdaKa5uT8', 'types': ['administrative_area_level_3', 'political']}], 'status': 'OK'}
{'results': [{'address_components': [{'long_name': 'Cerro Navia', 'short_name': 'Cerro Navia', 'types': ['administrative_area_level_3', 'political']}, {'long_name': 'Santiago Province', 'short_name': 'Santiago Province', 'types': ['administrative_area_level_2', 'political']}, {'long_name': 'Santiago Metropolitan Region', 'short_name': 'Santiago Metropolitan Region', 'types': ['administrative_area_level_1', 'political']}, {'long_name': 'Chile', 'short_name': 'CL', 'types': ['country', 'political']}], 'formatted_address': 'Cerro Navia, Santiago Metropolitan Region, Chile', 'geometry': {'bounds': {'northeast': {'lat': -33.4115416, 'lng': -70.7158707}, 'southwest': {'lat': -33.4387968, 'lng': -70.7822417}}, 'location': {'lat': -33.4218958, 'lng': -70.7404531}, 'location_type': 'APPROXIMATE', 'viewport': {'northeast': {'lat': -33.4115416, 'lng': -70.7158707}, 'southwest': {'lat': -33.4387968, 'lng': -70.7822417}}}, 'partial_match': True, 'place_id': 'ChIJn-7eydvDYpYRJnRQLqB4ZbI', 'types': ['administrative_area_level_3', 'political']}], 'status': 'OK'}
{'results': [{'address_components': [{'long_name': 'Colina', 'short_name': 'Colina', 'types': ['locality', 'political']}, {'long_name': 'Colina', 'short_name': 'Colina', 'types': ['administrative_area_level_3', 'political']}, {'long_name': 'Chacabuco Province', 'short_name': 'Chacabuco Province', 'types': ['administrative_area_level_2', 'political']}, {'long_name': 'Santiago Metropolitan Region', 'short_name': 'Santiago Metropolitan Region', 'types': ['administrative_area_level_1', 'political']}, {'long_name': 'Chile', 'short_name': 'CL', 'types': ['country', 'political']}], 'formatted_address': 'Colina, Santiago Metropolitan Region, Chile', 'geometry': {'bounds': {'northeast': {'lat': -33.1739756, 'lng': -70.6418135}, 'southwest': {'lat': -33.2333042, 'lng': -70.6937214}}, 'location': {'lat': -33.2045451, 'lng': -70.6759654}, 'location_type': 'APPROXIMATE', 'viewport': {'northeast': {'lat': -33.1739756, 'lng': -70.6418135}, 'southwest': {'lat': -33.2333042, 'lng': -70.6937214}}}, 'partial_match': True, 'place_id': 'ChIJQa69MTCwYpYRse43pzn6EZ0', 'types': ['locality', 'political']}], 'status': 'OK'}
{'results': [{'address_components': [{'long_name': 'Conchalí', 'short_name': 'Conchalí', 'types': ['locality', 'political']}, {'long_name': 'Conchali', 'short_name': 'Conchali', 'types': ['administrative_area_level_3', 'political']}, {'long_name': 'Santiago Province', 'short_name': 'Santiago Province', 'types': ['administrative_area_level_2', 'political']}, {'long_name': 'Santiago Metropolitan Region', 'short_name': 'Santiago Metropolitan Region', 'types': ['administrative_area_level_1', 'political']}, {'long_name': 'Chile', 'short_name': 'CL', 'types': ['country', 'political']}], 'formatted_address': 'Conchalí, Conchali, Santiago Metropolitan Region, Chile', 'geometry': {'bounds': {'northeast': {'lat': -33.3658732, 'lng': -70.656765}, 'southwest': {'lat': -33.4030301, 'lng': -70.70032139999999}}, 'location': {'lat': -33.3846893, 'lng': -70.68002129999999}, 'location_type': 'APPROXIMATE', 'viewport': {'northeast': {'lat': -33.3658732, 'lng': -70.656765}, 'southwest': {'lat': -33.4030301, 'lng': -70.70032139999999}}}, 'partial_match': True, 'place_id': 'ChIJxyOCvX7IYpYRMRlejPtrhGM', 'types': ['locality', 'political']}], 'status': 'OK'}
{'results': [{'address_components': [{'long_name': 'Curacaví', 'short_name': 'Curacaví', 'types': ['locality', 'political']}, {'long_name': 'Curacavi', 'short_name': 'Curacavi', 'types': ['administrative_area_level_3', 'political']}, {'long_name': 'Melipilla Province', 'short_name': 'Melipilla Province', 'types': ['administrative_area_level_2', 'political']}, {'long_name': 'Santiago Metropolitan Region', 'short_name': 'Santiago Metropolitan Region', 'types': ['administrative_area_level_1', 'political']}, {'long_name': 'Chile', 'short_name': 'CL', 'types': ['country', 'political']}], 'formatted_address': 'Curacaví, Curacavi, Santiago Metropolitan Region, Chile', 'geometry': {'bounds': {'northeast': {'lat': -33.3704708, 'lng': -71.08938239999999}, 'southwest': {'lat': -33.4218154, 'lng': -71.1779105}}, 'location': {'lat': -33.4009037, 'lng': -71.1267263}, 'location_type': 'APPROXIMATE', 'viewport': {'northeast': {'lat': -33.3704708, 'lng': -71.08938239999999}, 'southwest': {'lat': -33.4218154, 'lng': -71.1779105}}}, 'partial_match': True, 'place_id': 'ChIJlw86QqiMYpYRWbWyOdYXY08', 'types': ['locality', 'political']}], 'status': 'OK'}
{'results': [{'address_components': [{'long_name': 'El Bosque', 'short_name': 'El Bosque', 'types': ['locality', 'political']}, {'long_name': 'El Bosque', 'short_name': 'El Bosque', 'types': ['administrative_area_level_3', 'political']}, {'long_name': 'Santiago Province', 'short_name': 'Santiago Province', 'types': ['administrative_area_level_2', 'political']}, {'long_name': 'Santiago Metropolitan Region', 'short_name': 'Santiago Metropolitan Region', 'types': ['administrative_area_level_1', 'political']}, {'long_name': 'Chile', 'short_name': 'CL', 'types': ['country', 'political']}], 'formatted_address': 'El Bosque, Santiago Metropolitan Region, Chile', 'geometry': {'bounds': {'northeast': {'lat': -33.539128, 'lng': -70.6531988}, 'southwest': {'lat': -33.5852106, 'lng': -70.70083869999999}}, 'location': {'lat': -33.5589761, 'lng': -70.67875029999999}, 'location_type': 'APPROXIMATE', 'viewport': {'northeast': {'lat': -33.539128, 'lng': -70.6531988}, 'southwest': {'lat': -33.5852106, 'lng': -70.70083869999999}}}, 'partial_match': True, 'place_id': 'ChIJERPKPcnbYpYRs8_HkcFBp4U', 'types': ['locality', 'political']}], 'status': 'OK'}
{'results': [{'address_components': [{'long_name': 'El Monte', 'short_name': 'El Monte', 'types': ['locality', 'political']}, {'long_name': 'El Monte', 'short_name': 'El Monte', 'types': ['administrative_area_level_3', 'political']}, {'long_name': 'Talagante Province', 'short_name': 'Talagante Province', 'types': ['administrative_area_level_2', 'political']}, {'long_name': 'Santiago Metropolitan Region', 'short_name': 'Santiago Metropolitan Region', 'types': ['administrative_area_level_1', 'political']}, {'long_name': 'Chile', 'short_name': 'CL', 'types': ['country', 'political']}], 'formatted_address': 'El Monte, Santiago Metropolitan Region, Chile', 'geometry': {'bounds': {'northeast': {'lat': -33.6692747, 'lng': -70.9732588}, 'southwest': {'lat': -33.6873386, 'lng': -71.001937}}, 'location': {'lat': -33.6815281, 'lng': -70.9853968}, 'location_type': 'APPROXIMATE', 'viewport': {'northeast': {'lat': -33.6692747, 'lng': -70.9732588}, 'southwest': {'lat': -33.6873386, 'lng': -71.001937}}}, 'partial_match': True, 'place_id': 'ChIJn8w8Q-j8YpYRxs9nKjz6ybs', 'types': ['locality', 'political']}], 'status': 'OK'}
{'results': [{'address_components': [{'long_name': 'Estación Central', 'short_name': 'Estación Central', 'types': ['administrative_area_level_3', 'political']}, {'long_name': 'Santiago', 'short_name': 'Santiago', 'types': ['locality', 'political']}, {'long_name': 'Santiago Province', 'short_name': 'Santiago Province', 'types': ['administrative_area_level_2', 'political']}, {'long_name': 'Santiago Metropolitan Region', 'short_name': 'Santiago Metropolitan Region', 'types': ['administrative_area_level_1', 'political']}, {'long_name': 'Chile', 'short_name': 'CL', 'types': ['country', 'political']}], 'formatted_address': 'Santiago, Estación Central, Santiago Metropolitan Region, Chile', 'geometry': {'bounds': {'northeast': {'lat': -33.4438983, 'lng': -70.6728689}, 'southwest': {'lat': -33.481497, 'lng': -70.7337001}}, 'location': {'lat': -33.4619178, 'lng': -70.69850989999999}, 'location_type': 'APPROXIMATE', 'viewport': {'northeast': {'lat': -33.4438983, 'lng': -70.6728689}, 'southwest': {'lat': -33.481497, 'lng': -70.7337001}}}, 'partial_match': True, 'place_id': 'ChIJcaLTqI_EYpYRwziWaen1_SE', 'types': ['administrative_area_level_3', 'political']}], 'status': 'OK'}
{'results': [{'address_components': [{'long_name': 'Huechuraba', 'short_name': 'Huechuraba', 'types': ['locality', 'political']}, {'long_name': 'Huechuraba', 'short_name': 'Huechuraba', 'types': ['administrative_area_level_3', 'political']}, {'long_name': 'Santiago Province', 'short_name': 'Santiago Province', 'types': ['administrative_area_level_2', 'political']}, {'long_name': 'Santiago Metropolitan Region', 'short_name': 'Santiago Metropolitan Region', 'types': ['administrative_area_level_1', 'political']}, {'long_name': 'Chile', 'short_name': 'CL', 'types': ['country', 'political']}], 'formatted_address': 'Huechuraba, Santiago Metropolitan Region, Chile', 'geometry': {'bounds': {'northeast': {'lat': -33.3351559, 'lng': -70.6017655}, 'southwest': {'lat': -33.403412, 'lng': -70.69278249999999}}, 'location': {'lat': -33.3742128, 'lng': -70.6367425}, 'location_type': 'APPROXIMATE', 'viewport': {'northeast': {'lat': -33.3351559, 'lng': -70.6017655}, 'southwest': {'lat': -33.403412, 'lng': -70.69278249999999}}}, 'partial_match': True, 'place_id': 'ChIJpxXyOj3GYpYRbt3Xg9LIb58', 'types': ['locality', 'political']}], 'status': 'OK'}
{'results': [{'address_components': [{'long_name': 'Independencia, Chile', 'short_name': 'Independencia, Chile', 'types': ['administrative_area_level_3', 'political']}, {'long_name': 'Santiago Province', 'short_name': 'Santiago Province', 'types': ['administrative_area_level_2', 'political']}, {'long_name': 'Santiago Metropolitan Region', 'short_name': 'Santiago Metropolitan Region', 'types': ['administrative_area_level_1', 'political']}, {'long_name': 'Chile', 'short_name': 'CL', 'types': ['country', 'political']}], 'formatted_address': 'Independencia, Chile, Santiago Metropolitan Region, Chile', 'geometry': {'bounds': {'northeast': {'lat': -33.3989427, 'lng': -70.6501645}, 'southwest': {'lat': -33.4319203, 'lng': -70.6819002}}, 'location': {'lat': -33.4155974, 'lng': -70.6642603}, 'location_type': 'APPROXIMATE', 'viewport': {'northeast': {'lat': -33.3989427, 'lng': -70.6501645}, 'southwest': {'lat': -33.4319203, 'lng': -70.6819002}}}, 'partial_match': True, 'place_id': 'ChIJq_HafNLFYpYRL5OUDVubPtg', 'types': ['administrative_area_level_3', 'political']}], 'status': 'OK'}
{'results': [{'address_components': [{'long_name': 'Isla de Maipo', 'short_name': 'Isla de Maipo', 'types': ['locality', 'political']}, {'long_name': 'Isla de Maipo', 'short_name': 'Isla de Maipo', 'types': ['administrative_area_level_3', 'political']}, {'long_name': 'Talagante Province', 'short_name': 'Talagante Province', 'types': ['administrative_area_level_2', 'political']}, {'long_name': 'Santiago Metropolitan Region', 'short_name': 'Santiago Metropolitan Region', 'types': ['administrative_area_level_1', 'political']}, {'long_name': 'Chile', 'short_name': 'CL', 'types': ['country', 'political']}], 'formatted_address': 'Isla de Maipo, Santiago Metropolitan Region, Chile', 'geometry': {'bounds': {'northeast': {'lat': -33.7255002, 'lng': -70.88591219999999}, 'southwest': {'lat': -33.7590895, 'lng': -70.932592}}, 'location': {'lat': -33.7464562, 'lng': -70.89999999999999}, 'location_type': 'APPROXIMATE', 'viewport': {'northeast': {'lat': -33.7255002, 'lng': -70.88591219999999}, 'southwest': {'lat': -33.7590895, 'lng': -70.932592}}}, 'partial_match': True, 'place_id': 'ChIJ-SERHoQeY5YR-xkqdYYIN48', 'types': ['locality', 'political']}], 'status': 'OK'}
{'results': [{'address_components': [{'long_name': 'La Cisterna', 'short_name': 'La Cisterna', 'types': ['locality', 'political']}, {'long_name': 'La Cisterna', 'short_name': 'La Cisterna', 'types': ['administrative_area_level_3', 'political']}, {'long_name': 'Santiago Province', 'short_name': 'Santiago Province', 'types': ['administrative_area_level_2', 'political']}, {'long_name': 'Santiago Metropolitan Region', 'short_name': 'Santiago Metropolitan Region', 'types': ['administrative_area_level_1', 'political']}, {'long_name': 'Chile', 'short_name': 'CL', 'types': ['country', 'political']}], 'formatted_address': 'La Cisterna, Santiago Metropolitan Region, Chile', 'geometry': {'bounds': {'northeast': {'lat': -33.510794, 'lng': -70.6446406}, 'southwest': {'lat': -33.5487808, 'lng': -70.6854142}},